$GPGGA,171908.000,3713.9203,N,08025.5245,W,1,04,2.20,604.3,M,-32.8,M,,*5E
$GPGSA,A,3,24,15,20,21,,,,,,,,,2.41,2.20,0.99*06
$GPRMC,171908.000,A,3713.9203,N,08025.5245,W,0.36,177.34,181119,,,A*7F
$GPVTG,177.34,T,,M,0.36,N,0.67,K,A*3F
$GPGGA,171909.000,3713.9201,N,08025.5245,W,1,04,2.20,604.5,M,-32.8,M,,*5B
$GPGSA,A,3,24,15,20,21,,,,,,,,,2.41,2.20,0.99*06
$GPGSV,2,1,06,20,70,343,38,21,64,206,22,24,57,103,38,51,38,219,*7B
$GPGSV,2,2,06,15,33,054,41,08,04,321,*73
$GPRMC,171909.000,A,3713.9201,N,08025.5245,W,0.30,203.50,181119,,,A*78
$GPVTG,203.50,T,,M,0.30,N,0.55,K,A*3A
$GPGGA,171910.000,3713.9199,N,08025.5247,W,1,04,2.20,604.5,M,-32.8,M,,*53
$GPGSA,A,3,24,15,20,21,,,,,,,,,2.41,2.20,0.99*06
$GPRMC,171910.000,A,3713.9199,N,08025.5247,W,0.23,219.83,181119,,,A*77
$GPVTG,219.83,T,,M,0.23,N,0.43,K,A*3A
$GPGGA,171911.000,3713.9198,N,08025.5248,W,1,04,2.20,604.6,M,-32.8,M,,*5F
$GPGSA,A,3,24,15,20,21,,,,,,,,,2.41,2.20,0.99*06
$GPRMC,171911.000,A,3713.9198,N,08025.5248,W,0.14,218.24,181119,,,A*70
$GPVTG,218.24,T,,M,0.14,N,0.26,K,A*31
$GPGGA,171912.000,3713.9195,N,08025.5246,W,1,04,2.20,605.0,M,-32.8,M,,*58
$GPGSA,A,3,24,15,20,21,,,,,,,,,2.41,2.20,0.99*06
$GPRMC,171912.000,A,3713.9195,N,08025.5246,W,0.21,202.66,181119,,,A*7B
$GPVTG,202.66,T,,M,0.21,N,0.40,K,A*3A
$GPGGA,171913.000,3713.9192,N,08025.5246,W,1,04,2.20,605.0,M,-32.8,M,,*5E
$GPGSA,A,3,24,15,20,21,,,,,,,,,2.41,2.20,0.99*06
$GPRMC,171913.000,A,3713.9192,N,08025.5246,W,0.28,198.42,181119,,,A*72
$GPVTG,198.42,T,,M,0.28,N,0.53,K,A*37
$GPGGA,171914.000,3713.9189,N,08025.5245,W,1,04,2.20,604.8,M,-32.8,M,,*59
$GPGSA,A,3,24,15,20,21,,,,,,,,,2.41,2.20,0.99*06
$GPGSV,2,1,07,20,70,343,38,21,64,206,24,24,57,103,40,15,33,054,40*77
$GPGSV,2,2,07,48,20,245,,08,04,321,,10,,,32*7F
$GPRMC,171914.000,A,3713.9189,N,08025.5245,W,0.19,182.06,181119,,,A*75
$GPVTG,182.06,T,,M,0.19,N,0.35,K,A*3E
$GPGGA,171915.000,3713.9185,N,08025.5245,W,1,04,2.20,604.1,M,-32.8,M,,*5D
$GPGSA,A,3,24,15,20,21,,,,,,,,,2.41,2.20,0.99*06
$GPRMC,171915.000,A,3713.9185,N,08025.5245,W,0.26,191.54,181119,,,A*71
$GPVTG,191.54,T,,M,0.26,N,0.48,K,A*3D
$GPGGA,171916.000,3713.9181,N,08025.5247,W,1,04,2.20,602.4,M,-32.8,M,,*5B
$GPGSA,A,3,24,15,20,21,,,,,,,,,2.41,2.20,0.99*06
$GPRMC,171916.000,A,3713.9181,N,08025.5247,W,0.15,193.64,181119,,,A*75
$GPVTG,193.64,T,,M,0.15,N,0.27,K,A*35
$GPGGA,171917.000,3713.9177,N,08025.5246,W,1,04,2.20,601.0,M,-32.8,M,,*55
$GPGSA,A,3,24,15,20,21,,,,,,,,,2.41,2.20,0.99*06
$GPRMC,171917.000,A,3713.9177,N,08025.5246,W,0.24,110.96,181119,,,A*78
$GPVTG,110.96,T,,M,0.24,N,0.45,K,A*35
$GPGGA,171918.000,3713.9173,N,08025.5248,W,1,04,2.21,599.4,M,-32.8,M,,*57
$GPGSA,A,3,24,15,20,21,,,,,,,,,2.42,2.21,0.99*04
$GPRMC,171918.000,A,3713.9173,N,08025.5248,W,0.03,82.01,181119,,,A*4C
$GPVTG,82.01,T,,M,0.03,N,0.05,K,A*00
$GPGGA,171919.000,3713.9170,N,08025.5249,W,1,04,2.20,598.5,M,-32.8,M,,*55
$GPGSA,A,3,24,15,20,21,,,,,,,,,2.41,2.20,0.99*06
$GPGSV,2,1,07,20,70,343,38,21,64,206,29,24,57,103,40,15,33,054,40*7A
$GPGSV,2,2,07,33,11,105,,08,04,321,,10,,,33*77
$GPRMC,171919.000,A,3713.9170,N,08025.5249,W,0.14,140.75,181119,,,A*75
$GPVTG,140.75,T,,M,0.14,N,0.25,K,A*38
$GPGGA,171920.000,3713.9167,N,08025.5251,W,1,04,2.21,597.1,M,-32.8,M,,*5A
$GPGSA,A,3,24,15,20,21,,,,,,,,,2.42,2.21,0.99*04
$GPRMC,171920.000,A,3713.9167,N,08025.5251,W,0.09,45.06,181119,,,A*4C
$GPVTG,45.06,T,,M,0.09,N,0.18,K,A*0A
$GPGGA,171921.000,3713.9164,N,08025.5253,W,1,04,2.21,596.3,M,-32.8,M,,*59
$GPGSA,A,3,24,15,20,21,,,,,,,,,2.42,2.21,0.99*04
$GPRMC,171921.000,A,3713.9164,N,08025.5253,W,0.15,243.26,181119,,,A*77
$GPVTG,243.26,T,,M,0.15,N,0.28,K,A*32
$GPGGA,171922.000,3713.9162,N,08025.5253,W,1,04,2.21,595.5,M,-32.8,M,,*59
$GPGSA,A,3,24,15,20,21,,,,,,,,,2.42,2.21,0.99*04
$GPRMC,171922.000,A,3713.9162,N,08025.5253,W,0.10,196.39,181119,,,A*72
$GPVTG,196.39,T,,M,0.10,N,0.18,K,A*31
$GPGGA,171923.000,3713.9161,N,08025.5255,W,1,04,2.21,594.6,M,-32.8,M,,*5F
$GPGSA,A,3,24,15,20,21,,,,,,,,,2.42,2.21,0.99*04
$GPRMC,171923.000,A,3713.9161,N,08025.5255,W,0.22,334.49,181119,,,A*7A
$GPVTG,334.49,T,,M,0.22,N,0.41,K,A*31
$GPGGA,171924.000,3713.9160,N,08025.5257,W,1,04,2.21,594.1,M,-32.8,M,,*5C
$GPGSA,A,3,24,15,20,21,,,,,,,,,2.42,2.21,0.99*04
$GPGSV,2,1,07,20,70,343,39,21,64,206,27,24,57,103,41,15,33,054,42*76
$GPGSV,2,2,07,33,11,105,,08,04,321,,10,,,35*71
$GPRMC,171924.000,A,3713.9160,N,08025.5257,W,0.16,332.00,181119,,,A*72
$GPVTG,332.00,T,,M,0.16,N,0.29,K,A*33
$GPGGA,171925.000,3713.9159,N,08025.5257,W,1,04,2.21,593.8,M,-32.8,M,,*59
$GPGSA,A,3,24,15,20,21,,,,,,,,,2.42,2.21,0.99*04
$GPRMC,171925.000,A,3713.9159,N,08025.5257,W,0.12,288.00,181119,,,A*7D
$GPVTG,288.00,T,,M,0.12,N,0.21,K,A*3F
$GPGGA,171926.000,3713.9159,N,08025.5258,W,1,04,2.21,593.4,M,-32.8,M,,*59
$GPGSA,A,3,24,15,20,21,,,,,,,,,2.42,2.21,0.99*04
$GPRMC,171926.000,A,3713.9159,N,08025.5258,W,0.12,291.95,181119,,,A*75
$GPVTG,291.95,T,,M,0.12,N,0.22,K,A*38
$GPGGA,171927.000,3713.9158,N,08025.5259,W,1,04,2.21,593.0,M,-32.8,M,,*5C
$GPGSA,A,3,24,15,20,21,,,,,,,,,2.42,2.21,0.99*04
$GPRMC,171927.000,A,3713.9158,N,08025.5259,W,0.13,290.67,181119,,,A*79
$GPVTG,290.67,T,,M,0.13,N,0.25,K,A*32
$GPGGA,171928.000,3713.9158,N,08025.5260,W,1,04,2.21,592.6,M,-32.8,M,,*5E
$GPGSA,A,3,24,15,20,21,,,,,,,,,2.42,2.21,0.99*04
$GPRMC,171928.000,A,3713.9158,N,08025.5260,W,0.13,299.99,181119,,,A*74
$GPVTG,299.99,T,,M,0.13,N,0.24,K,A*3B
$GPGGA,171929.000,3713.9157,N,08025.5261,W,1,04,2.21,592.2,M,-32.8,M,,*55
$GPGSA,A,3,24,15,20,21,,,,,,,,,2.42,2.21,0.99*04
$GPGSV,2,1,07,20,70,343,39,21,64,206,25,24,57,102,41,51,38,219,*73
$GPGSV,2,2,07,15,33,054,42,08,04,321,,10,,,35*76
$GPRMC,171929.000,A,3713.9157,N,08025.5261,W,0.03,358.52,181119,,,A*71
$GPVTG,358.52,T,,M,0.03,N,0.05,K,A*32
$GPGGA,171930.000,3713.9156,N,08025.5261,W,1,04,2.82,591.8,M,-32.8,M,,*5C
$GPGSA,A,3,24,15,20,21,,,,,,,,,6.44,2.82,5.79*04
$GPRMC,171930.000,A,3713.9156,N,08025.5261,W,0.06,323.35,181119,,,A*70
$GPVTG,323.35,T,,M,0.06,N,0.11,K,A*3F
$GPGGA,171931.000,3713.9154,N,08025.5263,W,1,04,2.21,591.4,M,-32.8,M,,*58
$GPGSA,A,3,24,15,20,21,,,,,,,,,2.42,2.21,0.99*04
$GPRMC,171931.000,A,3713.9154,N,08025.5263,W,0.21,246.41,181119,,,A*75
$GPVTG,246.41,T,,M,0.21,N,0.38,K,A*30
$GPGGA,171932.000,3713.9153,N,08025.5265,W,1,04,2.21,590.8,M,-32.8,M,,*57
$GPGSA,A,3,24,15,20,21,,,,,,,,,2.42,2.21,0.99*04
$GPRMC,171932.000,A,3713.9153,N,08025.5265,W,0.19,249.54,181119,,,A*77
$GPVTG,249.54,T,,M,0.19,N,0.35,K,A*3D
$GPGGA,171933.000,3713.9152,N,08025.5267,W,1,04,2.21,590.4,M,-32.8,M,,*59
$GPGSA,A,3,24,15,20,21,,,,,,,,,2.42,2.21,0.99*04
$GPRMC,171933.000,A,3713.9152,N,08025.5267,W,0.19,250.16,181119,,,A*7B
$GPVTG,250.16,T,,M,0.19,N,0.34,K,A*32
$GPGGA,171934.000,3713.9150,N,08025.5269,W,1,04,2.21,589.9,M,-32.8,M,,*57
$GPGSA,A,3,24,15,20,21,,,,,,,,,2.42,2.21,0.99*04
$GPGSV,2,1,07,20,70,343,38,21,64,206,26,24,57,102,41,51,38,219,*71
$GPGSV,2,2,07,15,33,054,42,08,04,321,,10,,,36*75
$GPRMC,171934.000,A,3713.9150,N,08025.5269,W,0.32,214.93,181119,,,A*74
$GPVTG,214.93,T,,M,0.32,N,0.60,K,A*37
$GPGGA,171935.000,3713.9148,N,08025.5271,W,1,04,2.21,589.4,M,-32.8,M,,*5B
$GPGSA,A,3,24,15,20,21,,,,,,,,,2.42,2.21,0.99*04
$GPRMC,171935.000,A,3713.9148,N,08025.5271,W,0.27,201.04,181119,,,A*7B
$GPVTG,201.04,T,,M,0.27,N,0.49,K,A*32
$GPGGA,171936.000,3713.9145,N,08025.5274,W,1,04,2.21,588.5,M,-32.8,M,,*50
$GPGSA,A,3,24,15,20,21,,,,,,,,,2.42,2.21,0.99*04
$GPRMC,171936.000,A,3713.9145,N,08025.5274,W,0.31,191.28,181119,,,A*73
$GPVTG,191.28,T,,M,0.31,N,0.57,K,A*3E
$GPGGA,171937.000,3713.9142,N,08025.5277,W,1,04,2.21,587.6,M,-32.8,M,,*59
$GPGSA,A,3,24,15,20,21,,,,,,,,,2.42,2.21,0.99*04
$GPRMC,171937.000,A,3713.9142,N,08025.5277,W,0.27,170.82,181119,,,A*7E
$GPVTG,170.82,T,,M,0.27,N,0.50,K,A*31
$GPGGA,171938.000,3713.9139,N,08025.5278,W,1,04,2.21,587.2,M,-32.8,M,,*51
$GPGSA,A,3,24,15,20,21,,,,,,,,,2.42,2.21,0.99*04
$GPRMC,171938.000,A,3713.9139,N,08025.5278,W,0.36,179.71,181119,,,A*77
$GPVTG,179.71,T,,M,0.36,N,0.67,K,A*30
$GPGGA,171939.000,3713.9137,N,08025.5282,W,1,04,2.21,586.7,M,-32.8,M,,*5F
$GPGSA,A,3,24,15,20,21,,,,,,,,,2.42,2.21,0.99*04
$GPGSV,2,1,08,20,70,343,38,21,64,206,29,24,57,102,41,15,33,054,42*77
$GPGSV,2,2,08,32,26,247,,48,20,245,,08,04,321,,10,,,35*43
$GPRMC,171939.000,A,3713.9137,N,08025.5282,W,0.28,196.82,181119,,,A*7F
$GPVTG,196.82,T,,M,0.28,N,0.51,K,A*37
$GPGGA,171940.000,3713.9136,N,08025.5284,W,1,04,2.21,586.6,M,-32.8,M,,*57
$GPGSA,A,3,24,15,20,21,,,,,,,,,2.42,2.21,0.99*04
$GPRMC,171940.000,A,3713.9136,N,08025.5284,W,0.30,240.33,181119,,,A*7D
$GPVTG,240.33,T,,M,0.30,N,0.56,K,A*3B
$GPGGA,171941.000,3713.9135,N,08025.5286,W,1,04,2.21,586.6,M,-32.8,M,,*57
$GPGSA,A,3,24,15,20,21,,,,,,,,,2.42,2.21,0.99*04
$GPRMC,171941.000,A,3713.9135,N,08025.5286,W,0.28,233.79,181119,,,A*7E
$GPVTG,233.79,T,,M,0.28,N,0.53,K,A*3D
$GPGGA,171942.000,3713.9134,N,08025.5288,W,1,04,2.21,586.5,M,-32.8,M,,*58
$GPGSA,A,3,24,15,20,21,,,,,,,,,2.42,2.21,0.99*04
$GPRMC,171942.000,A,3713.9134,N,08025.5288,W,0.32,238.29,181119,,,A*77
$GPVTG,238.29,T,,M,0.32,N,0.59,K,A*32
$GPGGA,171943.000,3713.9134,N,08025.5291,W,1,04,2.21,586.5,M,-32.8,M,,*51
$GPGSA,A,3,24,15,20,21,,,,,,,,,2.42,2.21,0.99*04
$GPRMC,171943.000,A,3713.9134,N,08025.5291,W,0.45,259.53,181119,,,A*74
$GPVTG,259.53,T,,M,0.45,N,0.84,K,A*38
$GPGGA,171944.000,3713.9134,N,08025.5292,W,1,04,2.21,586.4,M,-32.8,M,,*54
$GPGSA,A,3,24,15,20,21,,,,,,,,,2.42,2.21,0.99*04
$GPGSV,2,1,08,20,70,343,37,21,64,206,28,24,57,102,41,10,44,310,35*7F
$GPGSV,2,2,08,15,33,054,42,32,26,247,,48,20,245,,08,04,321,*77
$GPRMC,171944.000,A,3713.9134,N,08025.5292,W,0.33,269.46,181119,,,A*76
$GPVTG,269.46,T,,M,0.33,N,0.62,K,A*36
$GPGGA,171945.000,3713.9133,N,08025.5293,W,1,04,2.21,586.1,M,-32.8,M,,*56
$GPGSA,A,3,24,15,20,21,,,,,,,,,2.42,2.21,0.99*04
$GPRMC,171945.000,A,3713.9133,N,08025.5293,W,0.20,259.69,181119,,,A*7D
$GPVTG,259.69,T,,M,0.20,N,0.37,K,A*3A
$GPGGA,171946.000,3713.9134,N,08025.5293,W,1,04,2.21,586.0,M,-32.8,M,,*53
$GPGSA,A,3,24,15,20,21,,,,,,,,,2.42,2.21,0.99*04
$GPRMC,171946.000,A,3713.9134,N,08025.5293,W,0.20,318.82,181119,,,A*78
$GPVTG,318.82,T,,M,0.20,N,0.37,K,A*3B
$GPGGA,171947.000,3713.9134,N,08025.5294,W,1,04,2.21,586.0,M,-32.8,M,,*55
$GPGSA,A,3,24,15,20,21,,,,,,,,,2.42,2.21,0.99*04
$GPRMC,171947.000,A,3713.9134,N,08025.5294,W,0.12,308.50,181119,,,A*71
$GPVTG,308.50,T,,M,0.12,N,0.23,K,A*31
$GPGGA,171948.000,3713.9135,N,08025.5293,W,1,04,2.22,586.1,M,-32.8,M,,*5E
$GPGSA,A,3,24,15,20,21,,,,,,,,,2.42,2.22,0.99*07
$GPRMC,171948.000,A,3713.9135,N,08025.5293,W,0.06,41.78,181119,,,A*49
$GPVTG,41.78,T,,M,0.06,N,0.11,K,A*01
$GPGGA,171949.000,3713.9135,N,08025.5274,W,1,05,1.62,590.9,M,-32.8,M,,*5F
$GPGSA,A,3,24,15,20,21,10,,,,,,,,1.89,1.62,0.97*0B
$GPGSV,2,1,08,20,70,343,36,21,64,206,26,24,57,102,41,10,44,310,36*73
$GPGSV,2,2,08,15,33,054,40,32,26,247,,33,11,105,,08,04,321,*7C
$GPRMC,171949.000,A,3713.9135,N,08025.5274,W,0.32,170.45,181119,,,A*7B
$GPVTG,170.45,T,,M,0.32,N,0.59,K,A*37
$GPGGA,171950.000,3713.9137,N,08025.5263,W,1,05,1.62,593.7,M,-32.8,M,,*5E
$GPGSA,A,3,24,15,20,21,10,,,,,,,,1.89,1.62,0.97*0B
$GPRMC,171950.000,A,3713.9137,N,08025.5263,W,0.36,164.90,181119,,,A*7E
$GPVTG,164.90,T,,M,0.36,N,0.68,K,A*3C
$GPGGA,171951.000,3713.9139,N,08025.5255,W,1,05,1.62,596.1,M,-32.8,M,,*57
$GPGSA,A,3,24,15,20,21,10,,,,,,,,1.89,1.62,0.97*0B
$GPRMC,171951.000,A,3713.9139,N,08025.5255,W,0.29,194.08,181119,,,A*74
$GPVTG,194.08,T,,M,0.29,N,0.54,K,A*33
$GPGGA,171952.000,3713.9140,N,08025.5249,W,1,05,1.62,597.7,M,-32.8,M,,*50
$GPGSA,A,3,24,15,20,21,10,,,,,,,,1.89,1.62,0.97*0B
$GPRMC,171952.000,A,3713.9140,N,08025.5249,W,0.31,160.82,181119,,,A*74
$GPVTG,160.82,T,,M,0.31,N,0.57,K,A*30
$GPGGA,171953.000,3713.9142,N,08025.5244,W,1,05,1.62,599.2,M,-32.8,M,,*55
$GPGSA,A,3,24,15,20,21,10,,,,,,,,1.89,1.62,0.97*0B
$GPRMC,171953.000,A,3713.9142,N,08025.5244,W,0.36,178.80,181119,,,A*76
$GPVTG,178.80,T,,M,0.36,N,0.66,K,A*3E
$GPGGA,171954.000,3713.9143,N,08025.5241,W,1,05,1.62,600.2,M,-32.8,M,,*55
$GPGSA,A,3,24,15,20,21,10,,,,,,,,1.89,1.62,0.97*0B
$GPGSV,2,1,08,20,70,343,35,21,64,206,25,24,57,102,41,10,44,310,35*70
$GPGSV,2,2,08,15,33,054,39,32,26,247,,33,11,105,,08,04,321,*72
$GPRMC,171954.000,A,3713.9143,N,08025.5241,W,0.18,207.03,181119,,,A*79
$GPVTG,207.03,T,,M,0.18,N,0.34,K,A*35
$GPGGA,171955.000,3713.9146,N,08025.5237,W,1,05,1.62,601.2,M,-32.8,M,,*51
$GPGSA,A,3,24,15,20,21,10,,,,,,,,1.89,1.62,0.97*0B
$GPRMC,171955.000,A,3713.9146,N,08025.5237,W,0.12,235.71,181119,,,A*72
$GPVTG,235.71,T,,M,0.12,N,0.22,K,A*3C
$GPGGA,171956.000,3713.9147,N,08025.5231,W,1,05,1.62,602.3,M,-32.8,M,,*57
$GPGSA,A,3,24,15,20,21,10,,,,,,,,1.89,1.62,0.97*0B
$GPRMC,171956.000,A,3713.9147,N,08025.5231,W,0.28,159.55,181119,,,A*70
$GPVTG,159.55,T,,M,0.28,N,0.52,K,A*3D
$GPGGA,171957.000,3713.9147,N,08025.5231,W,1,05,1.62,602.3,M,-32.8,M,,*56
$GPGSA,A,3,24,15,20,21,10,,,,,,,,1.89,1.62,0.97*0B
$GPRMC,171957.000,A,3713.9147,N,08025.5231,W,0.23,135.30,181119,,,A*73
$GPVTG,135.30,T,,M,0.23,N,0.43,K,A*3F
$GPGGA,171958.000,3713.9146,N,08025.5230,W,1,05,1.62,602.4,M,-32.8,M,,*5E
$GPGSA,A,3,24,15,20,21,10,,,,,,,,1.89,1.62,0.97*0B
$GPRMC,171958.000,A,3713.9146,N,08025.5230,W,0.26,153.16,181119,,,A*7D
$GPVTG,153.16,T,,M,0.26,N,0.48,K,A*35
$GPGGA,171959.000,3713.9146,N,08025.5230,W,1,05,1.62,602.4,M,-32.8,M,,*5F
$GPGSA,A,3,24,15,20,21,10,,,,,,,,1.89,1.62,0.97*0B
$GPGSV,2,1,08,20,70,343,34,21,64,206,26,24,57,102,41,10,44,310,35*72
$GPGSV,2,2,08,15,32,054,39,32,26,247,25,08,04,321,,34,,,*47
$GPRMC,171959.000,A,3713.9146,N,08025.5230,W,0.14,177.64,181119,,,A*7E
$GPVTG,177.64,T,,M,0.14,N,0.27,K,A*3E
$GPGGA,172000.000,3713.9145,N,08025.5230,W,1,05,1.62,602.4,M,-32.8,M,,*5A
$GPGSA,A,3,24,15,20,21,10,,,,,,,,1.89,1.62,0.97*0B
$GPRMC,172000.000,A,3713.9145,N,08025.5230,W,0.08,219.05,181119,,,A*7A
$GPVTG,219.05,T,,M,0.08,N,0.15,K,A*3E
$GPGGA,172001.000,3713.9145,N,08025.5230,W,1,05,1.62,602.4,M,-32.8,M,,*5B
$GPGSA,A,3,24,15,20,21,10,,,,,,,,1.89,1.62,0.97*0B
$GPRMC,172001.000,A,3713.9145,N,08025.5230,W,0.09,227.69,181119,,,A*7D
$GPVTG,227.69,T,,M,0.09,N,0.17,K,A*3A
$GPGGA,172002.000,3713.9145,N,08025.5230,W,1,05,1.62,602.4,M,-32.8,M,,*58
$GPGSA,A,3,24,15,20,21,10,,,,,,,,1.89,1.62,0.97*0B
$GPRMC,172002.000,A,3713.9145,N,08025.5230,W,0.04,11.99,181119,,,A*4B
$GPVTG,11.99,T,,M,0.04,N,0.08,K,A*01
$GPGGA,172003.000,3713.9145,N,08025.5230,W,1,05,2.01,602.5,M,-32.8,M,,*5E
$GPGSA,A,3,24,15,20,21,10,,,,,,,,4.75,2.01,4.30*02
$GPRMC,172003.000,A,3713.9145,N,08025.5230,W,0.07,226.36,181119,,,A*7A
$GPVTG,226.36,T,,M,0.07,N,0.13,K,A*3B
$GPGGA,172004.000,3713.9145,N,08025.5230,W,1,05,1.62,602.5,M,-32.8,M,,*5F
$GPGSA,A,3,24,15,20,21,10,,,,,,,,1.89,1.62,0.97*0B
$GPGSV,2,1,08,20,71,343,36,21,64,206,29,24,57,102,40,10,44,310,34*7E
$GPGSV,2,2,08,15,32,054,40,32,26,247,19,08,04,321,23,35,,,*46
$GPRMC,172004.000,A,3713.9145,N,08025.5230,W,0.19,148.40,181119,,,A*78
$GPVTG,148.40,T,,M,0.19,N,0.34,K,A*3B
$GPGGA,172005.000,3713.9145,N,08025.5229,W,1,05,1.62,602.5,M,-32.8,M,,*56
$GPGSA,A,3,24,15,20,21,10,,,,,,,,1.89,1.62,0.97*0B
$GPRMC,172005.000,A,3713.9145,N,08025.5229,W,0.22,152.06,181119,,,A*70
$GPVTG,152.06,T,,M,0.22,N,0.41,K,A*38
$GPGGA,172006.000,3713.9144,N,08025.5229,W,1,05,1.62,602.5,M,-32.8,M,,*54
$GPGSA,A,3,24,15,20,21,10,,,,,,,,1.89,1.62,0.97*0B
$GPRMC,172006.000,A,3713.9144,N,08025.5229,W,0.14,130.86,181119,,,A*7B
$GPVTG,130.86,T,,M,0.14,N,0.26,K,A*30
$GPGGA,172007.000,3713.9144,N,08025.5229,W,1,05,1.62,602.6,M,-32.8,M,,*56
$GPGSA,A,3,24,15,20,21,10,,,,,,,,1.89,1.62,0.97*0B
$GPRMC,172007.000,A,3713.9144,N,08025.5229,W,0.21,137.04,181119,,,A*71
$GPVTG,137.04,T,,M,0.21,N,0.38,K,A*34
$GPGGA,172008.000,3713.9144,N,08025.5228,W,1,05,1.62,602.6,M,-32.8,M,,*58
$GPGSA,A,3,24,15,20,21,10,,,,,,,,1.89,1.62,0.97*0B
$GPRMC,172008.000,A,3713.9144,N,08025.5228,W,0.17,127.44,181119,,,A*7F
$GPVTG,127.44,T,,M,0.17,N,0.31,K,A*3D
$GPGGA,172009.000,3713.9144,N,08025.5228,W,1,05,1.62,602.6,M,-32.8,M,,*59
$GPGSA,A,3,24,15,20,21,10,,,,,,,,1.89,1.62,0.97*0B
$GPGSV,2,1,08,20,71,343,36,21,64,206,30,24,57,102,40,10,44,310,33*71
$GPGSV,2,2,08,15,32,054,40,32,26,247,21,08,04,321,18,35,,,*45
$GPRMC,172009.000,A,3713.9144,N,08025.5228,W,0.11,140.05,181119,,,A*7C
$GPVTG,140.05,T,,M,0.11,N,0.21,K,A*3E
$GPGGA,172010.000,3713.9144,N,08025.5227,W,1,05,1.62,602.6,M,-32.8,M,,*5E
$GPGSA,A,3,24,15,20,21,10,,,,,,,,1.89,1.62,0.97*0B
$GPRMC,172010.000,A,3713.9144,N,08025.5227,W,0.05,196.12,181119,,,A*73
$GPVTG,196.12,T,,M,0.05,N,0.09,K,A*3C
$GPGGA,172011.000,3713.9143,N,08025.5227,W,1,05,1.62,602.7,M,-32.8,M,,*59
$GPGSA,A,3,24,15,20,21,10,,,,,,,,1.89,1.62,0.97*0B
$GPRMC,172011.000,A,3713.9143,N,08025.5227,W,0.08,85.13,181119,,,A*4A
$GPVTG,85.13,T,,M,0.08,N,0.15,K,A*0E
$GPGGA,172012.000,3713.9143,N,08025.5227,W,1,05,1.62,602.7,M,-32.8,M,,*5A
$GPGSA,A,3,24,15,20,21,10,,,,,,,,1.89,1.62,0.97*0B
$GPRMC,172012.000,A,3713.9143,N,08025.5227,W,0.08,89.48,181119,,,A*4B
$GPVTG,89.48,T,,M,0.08,N,0.15,K,A*0C
$GPGGA,172013.000,3713.9144,N,08025.5226,W,1,05,1.62,602.7,M,-32.8,M,,*5D
$GPGSA,A,3,24,15,20,21,10,,,,,,,,1.89,1.62,0.97*0B
$GPRMC,172013.000,A,3713.9144,N,08025.5226,W,0.11,121.57,181119,,,A*79
$GPVTG,121.57,T,,M,0.11,N,0.20,K,A*3F
$GPGGA,172014.000,3713.9143,N,08025.5226,W,1,05,1.62,602.7,M,-32.8,M,,*5D
$GPGSA,A,3,24,15,20,21,10,,,,,,,,1.89,1.62,0.97*0B
$GPGSV,2,1,08,20,71,343,36,21,64,206,31,24,57,102,40,10,44,310,34*77
$GPGSV,2,2,08,15,32,054,40,32,27,247,21,08,04,321,14,36,,,*4B
$GPRMC,172014.000,A,3713.9143,N,08025.5226,W,0.11,131.44,181119,,,A*7A
$GPVTG,131.44,T,,M,0.11,N,0.20,K,A*3C
$GPGGA,172015.000,3713.9143,N,08025.5226,W,1,05,1.62,602.7,M,-32.8,M,,*5C
$GPGSA,A,3,24,15,20,21,10,,,,,,,,1.89,1.62,0.97*0B
$GPRMC,172015.000,A,3713.9143,N,08025.5226,W,0.17,166.18,181119,,,A*76
$GPVTG,166.18,T,,M,0.17,N,0.32,K,A*32
$GPGGA,172016.000,3713.9143,N,08025.5226,W,1,05,1.62,602.7,M,-32.8,M,,*5F
$GPGSA,A,3,24,15,20,21,10,,,,,,,,1.89,1.62,0.97*0B
$GPRMC,172016.000,A,3713.9143,N,08025.5226,W,0.25,205.11,181119,,,A*7B
$GPVTG,205.11,T,,M,0.25,N,0.46,K,A*3F
$GPGGA,172017.000,3713.9142,N,08025.5226,W,1,05,1.62,602.8,M,-32.8,M,,*50
$GPGSA,A,3,24,15,20,21,10,,,,,,,,1.89,1.62,0.97*0B
$GPRMC,172017.000,A,3713.9142,N,08025.5226,W,0.26,187.12,181119,,,A*72
$GPVTG,187.12,T,,M,0.26,N,0.48,K,A*38
$GPGGA,172018.000,3713.9142,N,08025.5226,W,1,05,1.62,602.8,M,-32.8,M,,*5F
$GPGSA,A,3,24,15,20,21,10,,,,,,,,1.89,1.62,0.97*0B
$GPRMC,172018.000,A,3713.9142,N,08025.5226,W,0.30,164.66,181119,,,A*74
$GPVTG,164.66,T,,M,0.30,N,0.55,K,A*3D
$GPGGA,172019.000,3713.9141,N,08025.5226,W,1,05,1.62,602.8,M,-32.8,M,,*5D
$GPGSA,A,3,24,15,20,21,10,,,,,,,,1.89,1.62,0.97*0B
$GPGSV,2,1,08,20,71,343,37,21,64,206,29,24,57,102,42,10,44,310,36*7F
$GPGSV,2,2,08,15,32,054,40,32,27,247,23,08,04,321,15,38,,,*46
$GPRMC,172019.000,A,3713.9141,N,08025.5226,W,0.15,190.27,181119,,,A*7F
$GPVTG,190.27,T,,M,0.15,N,0.27,K,A*31
$GPGGA,172020.000,3713.9140,N,08025.5226,W,1,05,1.62,602.8,M,-32.8,M,,*56
$GPGSA,A,3,24,15,20,21,10,,,,,,,,1.89,1.62,0.97*0B
$GPRMC,172020.000,A,3713.9140,N,08025.5226,W,0.13,79.06,181119,,,A*47
$GPVTG,79.06,T,,M,0.13,N,0.24,K,A*01
$GPGGA,172021.000,3713.9140,N,08025.5225,W,1,05,1.62,602.8,M,-32.8,M,,*54
$GPGSA,A,3,24,15,20,21,10,,,,,,,,1.89,1.62,0.97*0B
$GPRMC,172021.000,A,3713.9140,N,08025.5225,W,0.67,56.79,181119,,,A*43
$GPVTG,56.79,T,,M,0.67,N,1.24,K,A*06
$GPGGA,172022.000,3713.9145,N,08025.5219,W,1,05,1.62,603.5,M,-32.8,M,,*51
$GPGSA,A,3,24,15,20,21,10,,,,,,,,1.89,1.62,0.97*0B
$GPRMC,172022.000,A,3713.9145,N,08025.5219,W,0.80,58.19,181119,,,A*4B
$GPVTG,58.19,T,,M,0.80,N,1.49,K,A*0C
$GPGGA,172023.000,3713.9149,N,08025.5213,W,1,05,1.62,604.3,M,-32.8,M,,*57
$GPGSA,A,3,24,15,20,21,10,,,,,,,,1.89,1.62,0.97*0B
$GPRMC,172023.000,A,3713.9149,N,08025.5213,W,1.06,55.94,181119,,,A*4B
$GPVTG,55.94,T,,M,1.06,N,1.96,K,A*09
$GPGGA,172024.000,3713.9153,N,08025.5208,W,1,05,1.62,604.6,M,-32.8,M,,*54
$GPGSA,A,3,24,15,20,21,10,,,,,,,,1.89,1.62,0.97*0B
$GPGSV,2,1,08,20,71,343,35,21,64,206,30,24,57,102,40,10,44,310,36*77
$GPGSV,2,2,08,15,32,054,40,32,27,247,33,08,04,321,17,41,,,*4B
$GPRMC,172024.000,A,3713.9153,N,08025.5208,W,1.11,52.74,181119,,,A*42
$GPVTG,52.74,T,,M,1.11,N,2.06,K,A*0C
$GPGGA,172025.000,3713.9154,N,08025.5204,W,1,05,1.62,604.7,M,-32.8,M,,*5F
$GPGSA,A,3,24,15,20,21,10,,,,,,,,1.89,1.62,0.97*0B
$GPRMC,172025.000,A,3713.9154,N,08025.5204,W,1.23,53.34,181119,,,A*4C
$GPVTG,53.34,T,,M,1.23,N,2.28,K,A*04
$GPGGA,172026.000,3713.9157,N,08025.5198,W,1,05,1.62,604.8,M,-32.8,M,,*56
$GPGSA,A,3,24,15,20,21,10,,,,,,,,1.89,1.62,0.97*0B
$GPRMC,172026.000,A,3713.9157,N,08025.5198,W,1.42,52.23,181119,,,A*4A
$GPVTG,52.23,T,,M,1.42,N,2.62,K,A*0A
$GPGGA,172027.000,3713.9164,N,08025.5194,W,1,05,1.62,604.8,M,-32.8,M,,*5B
$GPGSA,A,3,24,15,20,21,10,,,,,,,,1.89,1.62,0.97*0B
$GPRMC,172027.000,A,3713.9164,N,08025.5194,W,1.56,45.82,181119,,,A*4F
$GPVTG,45.82,T,,M,1.56,N,2.89,K,A*07
$GPGGA,172028.000,3713.9170,N,08025.5188,W,1,05,1.62,605.0,M,-32.8,M,,*55
$GPGSA,A,3,24,15,20,21,10,,,,,,,,1.89,1.62,0.97*0B
$GPRMC,172028.000,A,3713.9170,N,08025.5188,W,1.59,50.68,181119,,,A*47
$GPVTG,50.68,T,,M,1.59,N,2.94,K,A*04
$GPGGA,172029.000,3713.9176,N,08025.5183,W,1,05,1.62,605.3,M,-32.8,M,,*5A
$GPGSA,A,3,24,15,20,21,10,,,,,,,,1.89,1.62,0.97*0B
$GPGSV,2,1,08,20,71,343,36,21,64,206,32,24,57,102,42,10,44,310,36*74
$GPGSV,2,2,08,15,32,054,42,32,27,247,32,08,04,321,17,43,,,*4A
$GPRMC,172029.000,A,3713.9176,N,08025.5183,W,1.61,47.99,181119,,,A*48
$GPVTG,47.99,T,,M,1.61,N,2.98,K,A*0B
$GPGGA,172030.000,3713.9181,N,08025.5177,W,1,05,1.62,605.5,M,-32.8,M,,*57
$GPGSA,A,3,24,15,20,21,10,,,,,,,,1.89,1.62,0.97*0B
$GPRMC,172030.000,A,3713.9181,N,08025.5177,W,1.67,52.86,181119,,,A*4F
$GPVTG,52.86,T,,M,1.67,N,3.10,K,A*06
$GPGGA,172031.000,3713.9186,N,08025.5170,W,1,05,1.62,605.9,M,-32.8,M,,*5A
$GPGSA,A,3,24,15,20,21,10,,,,,,,,1.89,1.62,0.97*0B
$GPRMC,172031.000,A,3713.9186,N,08025.5170,W,1.83,49.72,181119,,,A*45
$GPVTG,49.72,T,,M,1.83,N,3.39,K,A*06
$GPGGA,172032.000,3713.9191,N,08025.5163,W,1,05,1.62,606.2,M,-32.8,M,,*55
$GPGSA,A,3,24,15,20,21,10,,,,,,,,1.89,1.62,0.97*0B
$GPRMC,172032.000,A,3713.9191,N,08025.5163,W,1.84,55.61,181119,,,A*4A
$GPVTG,55.61,T,,M,1.84,N,3.41,K,A*01
$GPGGA,172033.000,3713.9195,N,08025.5158,W,1,05,1.62,606.4,M,-32.8,M,,*5E
$GPGSA,A,3,24,15,20,21,10,,,,,,,,1.89,1.62,0.97*0B
$GPRMC,172033.000,A,3713.9195,N,08025.5158,W,1.79,51.88,181119,,,A*46
$GPVTG,51.88,T,,M,1.79,N,3.31,K,A*07
$GPGGA,172034.000,3713.9200,N,08025.5153,W,1,05,1.62,606.8,M,-32.8,M,,*51
$GPGSA,A,3,24,15,20,21,10,,,,,,,,1.89,1.62,0.97*0B
$GPGSV,2,1,08,20,71,343,35,21,64,206,31,24,57,102,41,10,44,310,35*74
$GPGSV,2,2,08,15,32,054,41,32,27,247,29,08,04,321,16,43,,,*42
$GPRMC,172034.000,A,3713.9200,N,08025.5153,W,1.82,47.79,181119,,,A*48
$GPVTG,47.79,T,,M,1.82,N,3.38,K,A*03
$GPGGA,172035.000,3713.9203,N,08025.5147,W,1,05,1.62,607.0,M,-32.8,M,,*5F
$GPGSA,A,3,24,15,20,21,10,,,,,,,,1.89,1.62,0.97*0B
$GPRMC,172035.000,A,3713.9203,N,08025.5147,W,1.86,49.37,181119,,,A*4F
$GPVTG,49.37,T,,M,1.86,N,3.44,K,A*08
$GPGGA,172036.000,3713.9207,N,08025.5141,W,1,05,1.62,607.2,M,-32.8,M,,*5C
$GPGSA,A,3,24,15,20,21,10,,,,,,,,1.89,1.62,0.97*0B
$GPRMC,172036.000,A,3713.9207,N,08025.5141,W,1.95,48.62,181119,,,A*4D
$GPVTG,48.62,T,,M,1.95,N,3.62,K,A*0F
$GPGGA,172037.000,3713.9212,N,08025.5135,W,1,05,1.62,607.4,M,-32.8,M,,*5C
$GPGSA,A,3,24,15,20,21,10,,,,,,,,1.89,1.62,0.97*0B
$GPRMC,172037.000,A,3713.9212,N,08025.5135,W,2.06,50.32,181119,,,A*4E
$GPVTG,50.32,T,,M,2.06,N,3.81,K,A*07
$GPGGA,172038.000,3713.9215,N,08025.5129,W,1,05,1.62,607.5,M,-32.8,M,,*58
$GPGSA,A,3,24,15,20,21,10,,,,,,,,1.89,1.62,0.97*0B
$GPRMC,172038.000,A,3713.9215,N,08025.5129,W,1.93,50.47,181119,,,A*46
$GPVTG,50.47,T,,M,1.93,N,3.58,K,A*0E
$GPGGA,172039.000,3713.9220,N,08025.5122,W,1,05,1.62,607.8,M,-32.8,M,,*59
$GPGSA,A,3,24,15,20,21,10,,,,,,,,1.89,1.62,0.97*0B
$GPGSV,2,1,08,20,71,344,33,21,63,205,29,24,57,102,40,10,44,310,33*7F
$GPGSV,2,2,08,15,32,054,40,32,27,247,27,08,04,321,17,45,,,*4A
$GPRMC,172039.000,A,3713.9220,N,08025.5122,W,1.99,49.27,181119,,,A*4E
$GPVTG,49.27,T,,M,1.99,N,3.69,K,A*08
$GPGGA,172040.000,3713.9225,N,08025.5116,W,1,05,1.62,608.1,M,-32.8,M,,*53
$GPGSA,A,3,24,15,20,21,10,,,,,,,,1.89,1.62,0.97*0B
$GPRMC,172040.000,A,3713.9225,N,08025.5116,W,1.93,46.12,181119,,,A*41
$GPVTG,46.12,T,,M,1.93,N,3.58,K,A*09
$GPGGA,172041.000,3713.9227,N,08025.5111,W,1,05,1.62,608.3,M,-32.8,M,,*55
$GPGSA,A,3,24,15,20,21,10,,,,,,,,1.89,1.62,0.97*0B
$GPRMC,172041.000,A,3713.9227,N,08025.5111,W,1.75,48.55,181119,,,A*40
$GPVTG,48.55,T,,M,1.75,N,3.24,K,A*07
$GPGGA,172042.000,3713.9230,N,08025.5106,W,1,05,1.62,608.6,M,-32.8,M,,*53
$GPGSA,A,3,24,15,20,21,10,,,,,,,,1.89,1.62,0.97*0B
$GPRMC,172042.000,A,3713.9230,N,08025.5106,W,1.62,46.06,181119,,,A*4D
$GPVTG,46.06,T,,M,1.62,N,3.01,K,A*0E
$GPGGA,172043.000,3713.9232,N,08025.5102,W,1,05,1.62,608.8,M,-32.8,M,,*5A
$GPGSA,A,3,24,15,20,21,10,,,,,,,,1.89,1.62,0.97*0B
$GPRMC,172043.000,A,3713.9232,N,08025.5102,W,1.43,49.96,181119,,,A*4F
$GPVTG,49.96,T,,M,1.43,N,2.64,K,A*09
$GPGGA,172044.000,3713.9233,N,08025.5098,W,1,05,1.62,609.0,M,-32.8,M,,*57
$GPGSA,A,3,24,15,20,21,10,,,,,,,,1.89,1.62,0.97*0B
$GPGSV,2,1,08,20,71,344,34,21,63,205,27,24,57,101,40,10,44,310,34*72
$GPGSV,2,2,08,15,32,054,42,32,27,247,28,08,04,321,20,46,,,*40
$GPRMC,172044.000,A,3713.9233,N,08025.5098,W,1.16,55.46,181119,,,A*4B
$GPVTG,55.46,T,,M,1.16,N,2.15,K,A*0F
$GPGGA,172045.000,3713.9235,N,08025.5094,W,1,05,1.62,609.2,M,-32.8,M,,*5E
$GPGSA,A,3,24,15,20,21,10,,,,,,,,1.89,1.62,0.97*0B
$GPRMC,172045.000,A,3713.9235,N,08025.5094,W,1.16,58.62,181119,,,A*4B
$GPVTG,58.62,T,,M,1.16,N,2.15,K,A*04
$GPGGA,172046.000,3713.9237,N,08025.5091,W,1,05,1.62,609.5,M,-32.8,M,,*5D
$GPGSA,A,3,24,15,20,21,10,,,,,,,,1.89,1.62,0.97*0B
$GPRMC,172046.000,A,3713.9237,N,08025.5091,W,0.96,58.35,181119,,,A*44
$GPVTG,58.35,T,,M,0.96,N,1.79,K,A*06
$GPGGA,172047.000,3713.9237,N,08025.5090,W,1,05,1.62,609.9,M,-32.8,M,,*51
$GPGSA,A,3,24,15,20,21,10,,,,,,,,1.89,1.62,0.97*0B
$GPRMC,172047.000,A,3713.9237,N,08025.5090,W,0.49,55.77,181119,,,A*4D
$GPVTG,55.77,T,,M,0.49,N,0.91,K,A*08
$GPGGA,172048.000,3713.9238,N,08025.5089,W,1,05,1.62,610.1,M,-32.8,M,,*59
$GPGSA,A,3,24,15,20,21,10,,,,,,,,1.89,1.62,0.97*0B
$GPRMC,172048.000,A,3713.9238,N,08025.5089,W,0.37,43.35,181119,,,A*4D
$GPVTG,43.35,T,,M,0.37,N,0.68,K,A*06
$GPGGA,172049.000,3713.9239,N,08025.5088,W,1,05,1.62,610.3,M,-32.8,M,,*5A
$GPGSA,A,3,24,15,20,21,10,,,,,,,,1.89,1.62,0.97*0B
$GPGSV,2,1,08,20,71,344,34,21,63,205,24,24,57,101,31,10,44,310,39*7A
$GPGSV,2,2,08,15,32,054,39,32,27,248,33,08,04,321,16,46,,,*4C
$GPRMC,172049.000,A,3713.9239,N,08025.5088,W,0.23,1.25,181119,,,A*7E
$GPVTG,1.25,T,,M,0.23,N,0.43,K,A*3D
$GPGGA,172050.000,3713.9243,N,08025.5088,W,1,05,2.00,610.6,M,-32.8,M,,*5D
$GPGSA,A,3,24,15,20,21,10,,,,,,,,4.70,2.00,4.25*02
$GPRMC,172050.000,A,3713.9243,N,08025.5088,W,0.44,342.87,181119,,,A*76
$GPVTG,342.87,T,,M,0.44,N,0.81,K,A*3E
$GPGGA,172051.000,3713.9244,N,08025.5088,W,1,05,1.62,610.6,M,-32.8,M,,*5C
$GPGSA,A,3,24,15,20,21,10,,,,,,,,1.89,1.62,0.97*0B
$GPRMC,172051.000,A,3713.9244,N,08025.5088,W,0.81,336.07,181119,,,A*72
$GPVTG,336.07,T,,M,0.81,N,1.50,K,A*31
$GPGGA,172052.000,3713.9249,N,08025.5089,W,1,05,1.62,610.9,M,-32.8,M,,*5C
$GPGSA,A,3,24,15,20,21,10,,,,,,,,1.89,1.62,0.97*0B
$GPRMC,172052.000,A,3713.9249,N,08025.5089,W,0.98,329.45,181119,,,A*7D
$GPVTG,329.45,T,,M,0.98,N,1.82,K,A*3E
$GPGGA,172053.000,3713.9256,N,08025.5090,W,1,05,1.62,611.1,M,-32.8,M,,*52
$GPGSA,A,3,24,15,20,21,10,,,,,,,,1.89,1.62,0.97*0B
$GPRMC,172053.000,A,3713.9256,N,08025.5090,W,1.31,334.21,181119,,,A*76
$GPVTG,334.21,T,,M,1.31,N,2.42,K,A*3D
$GPGGA,172054.000,3713.9260,N,08025.5092,W,1,05,1.62,611.2,M,-32.8,M,,*51
$GPGSA,A,3,24,15,20,21,10,,,,,,,,1.89,1.62,0.97*0B
$GPGSV,2,1,08,20,71,344,33,21,63,205,30,24,57,101,27,10,44,310,34*72
$GPGSV,2,2,08,15,32,054,22,32,27,248,38,08,04,321,14,47,,,*4E
$GPRMC,172054.000,A,3713.9260,N,08025.5092,W,1.37,333.36,181119,,,A*71
$GPVTG,333.36,T,,M,1.37,N,2.54,K,A*3D
$GPGGA,172055.000,3713.9269,N,08025.5091,W,1,06,1.42,612.6,M,-32.8,M,,*5C
$GPGSA,A,3,24,15,20,21,10,32,,,,,,,1.69,1.42,0.92*03
$GPRMC,172055.000,A,3713.9269,N,08025.5091,W,1.40,324.18,181119,,,A*70
$GPVTG,324.18,T,,M,1.40,N,2.60,K,A*30
$GPGGA,172056.000,3713.9276,N,08025.5092,W,1,06,1.42,613.6,M,-32.8,M,,*53
$GPGSA,A,3,24,15,20,21,10,32,,,,,,,1.69,1.42,0.92*03
$GPRMC,172056.000,A,3713.9276,N,08025.5092,W,1.46,322.13,181119,,,A*75
$GPVTG,322.13,T,,M,1.46,N,2.71,K,A*3B
$GPGGA,172057.000,3713.9283,N,08025.5096,W,1,06,1.42,614.4,M,-32.8,M,,*59
$GPGSA,A,3,24,15,20,21,10,32,,,,,,,1.69,1.42,0.92*03
$GPRMC,172057.000,A,3713.9283,N,08025.5096,W,1.74,319.70,181119,,,A*76
$GPVTG,319.70,T,,M,1.74,N,3.22,K,A*30
$GPGGA,172058.000,3713.9289,N,08025.5098,W,1,06,1.42,615.0,M,-32.8,M,,*57
$GPGSA,A,3,24,15,20,21,10,32,,,,,,,1.69,1.42,0.92*03
$GPRMC,172058.000,A,3713.9289,N,08025.5098,W,1.71,319.16,181119,,,A*78
$GPVTG,319.16,T,,M,1.71,N,3.17,K,A*33
$GPGGA,172059.000,3713.9293,N,08025.5103,W,1,06,1.42,615.2,M,-32.8,M,,*5C
$GPGSA,A,3,24,15,20,21,10,32,,,,,,,1.69,1.42,0.92*03
$GPGSV,2,1,08,20,71,344,34,21,63,205,30,24,57,101,26,10,44,310,34*74
$GPGSV,2,2,08,15,32,054,26,32,27,248,23,08,04,321,16,49,,,*4C
$GPRMC,172059.000,A,3713.9293,N,08025.5103,W,1.69,315.83,181119,,,A*78
$GPVTG,315.83,T,,M,1.69,N,3.14,K,A*39
$GPGGA,172100.000,3713.9298,N,08025.5109,W,1,06,1.42,615.4,M,-32.8,M,,*56
$GPGSA,A,3,24,15,20,21,10,32,,,,,,,1.69,1.42,0.92*03
$GPRMC,172100.000,A,3713.9298,N,08025.5109,W,1.84,312.47,181119,,,A*78
$GPVTG,312.47,T,,M,1.84,N,3.40,K,A*34
$GPGGA,172101.000,3713.9304,N,08025.5113,W,1,06,1.42,615.6,M,-32.8,M,,*5A
$GPGSA,A,3,24,15,20,21,10,32,,,,,,,1.69,1.42,0.92*03
$GPRMC,172101.000,A,3713.9304,N,08025.5113,W,1.82,313.55,181119,,,A*72
$GPVTG,313.55,T,,M,1.82,N,3.37,K,A*30
$GPGGA,172102.000,3713.9310,N,08025.5118,W,1,06,1.42,615.7,M,-32.8,M,,*56
$GPGSA,A,3,24,15,20,21,10,32,,,,,,,1.69,1.42,0.92*03
$GPRMC,172102.000,A,3713.9310,N,08025.5118,W,1.88,319.61,181119,,,A*78
$GPVTG,319.61,T,,M,1.88,N,3.49,K,A*3E
$GPGGA,172103.000,3713.9316,N,08025.5122,W,1,06,1.42,616.0,M,-32.8,M,,*5C
$GPGSA,A,3,24,15,20,21,10,32,,,,,,,1.69,1.42,0.92*03
$GPRMC,172103.000,A,3713.9316,N,08025.5122,W,1.86,321.59,181119,,,A*78
$GPVTG,321.59,T,,M,1.86,N,3.44,K,A*3D
$GPGGA,172104.000,3713.9321,N,08025.5127,W,1,06,1.42,616.2,M,-32.8,M,,*58
$GPGSA,A,3,24,15,20,21,10,32,,,,,,,1.69,1.42,0.92*03
$GPGSV,2,1,08,20,71,344,34,21,63,205,29,24,57,101,31,10,44,311,35*7A
$GPGSV,2,2,08,51,38,219,,15,32,054,24,32,27,248,27,08,04,321,16*72
$GPRMC,172104.000,A,3713.9321,N,08025.5127,W,1.80,322.17,181119,,,A*71
$GPVTG,322.17,T,,M,1.80,N,3.34,K,A*35
$GPGGA,172105.000,3713.9327,N,08025.5131,W,1,06,1.42,616.5,M,-32.8,M,,*5F
$GPGSA,A,3,24,15,20,21,10,32,,,,,,,1.69,1.42,0.92*03
$GPRMC,172105.000,A,3713.9327,N,08025.5131,W,1.81,323.99,181119,,,A*77
$GPVTG,323.99,T,,M,1.81,N,3.35,K,A*32
$GPGGA,172106.000,3713.9332,N,08025.5135,W,1,06,1.42,617.0,M,-32.8,M,,*58
$GPGSA,A,3,24,15,20,21,10,32,,,,,,,1.69,1.42,0.92*03
$GPRMC,172106.000,A,3713.9332,N,08025.5135,W,1.77,325.83,181119,,,A*70
$GPVTG,325.83,T,,M,1.77,N,3.29,K,A*3B
$GPGGA,172107.000,3713.9337,N,08025.5140,W,1,06,1.42,617.2,M,-32.8,M,,*5C
$GPGSA,A,3,24,15,20,21,10,32,,,,,,,1.69,1.42,0.92*03
$GPRMC,172107.000,A,3713.9337,N,08025.5140,W,1.93,324.41,181119,,,A*73
$GPVTG,324.41,T,,M,1.93,N,3.57,K,A*37
$GPGGA,172108.000,3713.9340,N,08025.5142,W,1,06,1.42,617.5,M,-32.8,M,,*56
$GPGSA,A,3,24,15,20,21,10,32,,,,,,,1.69,1.42,0.92*03
$GPRMC,172108.000,A,3713.9340,N,08025.5142,W,1.66,323.43,181119,,,A*71
$GPVTG,323.43,T,,M,1.66,N,3.08,K,A*32
$GPGGA,172109.000,3713.9343,N,08025.5145,W,1,06,1.42,617.7,M,-32.8,M,,*51
$GPGSA,A,3,24,15,20,21,10,32,,,,,,,1.69,1.42,0.92*03
$GPGSV,2,1,08,20,71,344,35,21,63,205,29,24,57,101,28,10,44,311,35*73
$GPGSV,2,2,08,51,38,219,37,15,32,054,31,32,27,248,29,08,04,321,17*7D
$GPRMC,172109.000,A,3713.9343,N,08025.5145,W,1.58,324.97,181119,,,A*77
$GPVTG,324.97,T,,M,1.58,N,2.93,K,A*32
$GPGGA,172110.000,3713.9346,N,08025.5148,W,1,06,1.42,617.8,M,-32.8,M,,*5E
$GPGSA,A,3,24,15,20,21,10,32,,,,,,,1.69,1.42,0.92*03
$GPRMC,172110.000,A,3713.9346,N,08025.5148,W,1.49,322.07,181119,,,A*78
$GPVTG,322.07,T,,M,1.49,N,2.75,K,A*35
$GPGGA,172111.000,3713.9350,N,08025.5151,W,1,06,1.42,618.0,M,-32.8,M,,*57
$GPGSA,A,3,24,15,20,21,10,32,,,,,,,1.69,1.42,0.92*03
$GPRMC,172111.000,A,3713.9350,N,08025.5151,W,1.48,322.97,181119,,,A*7E
$GPVTG,322.97,T,,M,1.48,N,2.75,K,A*3D
$GPGGA,172112.000,3713.9354,N,08025.5156,W,1,06,1.42,618.1,M,-32.8,M,,*56
$GPGSA,A,3,24,15,20,21,10,32,,,,,,,1.69,1.42,0.92*03
$GPRMC,172112.000,A,3713.9354,N,08025.5156,W,1.50,317.75,181119,,,A*7D
$GPVTG,317.75,T,,M,1.50,N,2.78,K,A*33
$GPGGA,172113.000,3713.9356,N,08025.5160,W,1,06,1.42,618.2,M,-32.8,M,,*53
$GPGSA,A,3,24,15,20,21,10,32,,,,,,,1.69,1.42,0.92*03
$GPRMC,172113.000,A,3713.9356,N,08025.5160,W,1.33,315.32,181119,,,A*7F
$GPVTG,315.32,T,,M,1.33,N,2.47,K,A*3B
$GPGGA,172114.000,3713.9358,N,08025.5163,W,1,06,1.42,618.4,M,-32.8,M,,*5F
$GPGSA,A,3,24,15,20,21,10,32,,,,,,,1.69,1.42,0.92*03
$GPGSV,3,1,09,20,71,345,35,21,63,205,29,24,57,101,34,10,44,311,32*78
$GPGSV,3,2,09,51,38,219,38,15,32,054,27,32,27,248,31,08,04,321,17*7C
$GPGSV,3,3,09,13,02,052,*47
$GPRMC,172114.000,A,3713.9358,N,08025.5163,W,1.08,312.63,181119,,,A*7E
$GPVTG,312.63,T,,M,1.08,N,2.00,K,A*33
$GPGGA,172115.000,3713.9359,N,08025.5165,W,1,06,1.42,618.5,M,-32.8,M,,*58
$GPGSA,A,3,24,15,20,21,10,32,,,,,,,1.69,1.42,0.92*03
$GPRMC,172115.000,A,3713.9359,N,08025.5165,W,0.85,313.19,181119,,,A*70
$GPVTG,313.19,T,,M,0.85,N,1.57,K,A*3A
$GPGGA,172116.000,3713.9359,N,08025.5166,W,1,06,1.42,618.7,M,-32.8,M,,*5A
$GPGSA,A,3,24,15,20,21,10,32,,,,,,,1.69,1.42,0.92*03
$GPRMC,172116.000,A,3713.9359,N,08025.5166,W,0.49,317.10,181119,,,A*7D
$GPVTG,317.10,T,,M,0.49,N,0.91,K,A*3C
$GPGGA,172117.000,3713.9360,N,08025.5166,W,1,06,1.42,618.8,M,-32.8,M,,*5E
$GPGSA,A,3,24,15,20,21,10,32,,,,,,,1.69,1.42,0.92*03
$GPRMC,172117.000,A,3713.9360,N,08025.5166,W,0.30,323.60,181119,,,A*78
$GPVTG,323.60,T,,M,0.30,N,0.55,K,A*3A
