$GPGGA,193304.000,3713.9277,N,08025.5282,W,1,06,1.31,609.2,M,-32.8,M,,*51,,,,,
$GPGSA,A,3,24,15,13,29,21,20,,,,,,,2.15,1.31,1.71*0A,,
$GPRMC,193304.000,A,3713.9277,N,08025.5282,W,0.02,187.11,041019,,,A*7E,,,,,,,
$GPVTG,187.11,T,,M,0.02,N,0.03,K,A*32,,,,,,,,,,
$GPGGA,193305.000,3713.9277,N,08025.5282,W,1,06,1.31,609.2,M,-32.8,M,,*50,,,,,
$GPGSA,A,3,24,15,13,29,21,20,,,,,,,2.15,1.31,1.71*0A,,
$GPGSV,2,1,08,21,74,276,34,15,56,045,26,20,51,310,37,24,44,137,36*72
$GPGSV,2,2,08,13,21,045,38,29,11,195,34,05,04,093,32,47,,,*42
$GPRMC,193305.000,A,3713.9277,N,08025.5282,W,0.01,219.41,041019,,,A*7D,,,,,,,
$GPVTG,219.41,T,,M,0.01,N,0.01,K,A*32,,,,,,,,,,
$GPGGA,193306.000,3713.9277,N,08025.5282,W,1,06,1.31,609.2,M,-32.8,M,,*53,,,,,
$GPGSA,A,3,24,15,13,29,21,20,,,,,,,2.15,1.31,1.71*0A,,
$GPRMC,193306.000,A,3713.9277,N,08025.5282,W,0.01,21.94,041019,,,A*4F,,,,,,,
$GPVTG,21.94,T,,M,0.01,N,0.03,K,A*01,,,,,,,,,,
$GPGGA,193307.000,3713.9277,N,08025.5282,W,1,06,1.31,609.2,M,-32.8,M,,*52,,,,,
$GPGSA,A,3,24,15,13,29,21,20,,,,,,,2.15,1.31,1.71*0A,,
$GPRMC,193307.000,A,3713.9277,N,08025.5282,W,0.02,251.55,041019,,,A*75,,,,,,,
$GPVTG,251.55,T,,M,0.02,N,0.04,K,A*3D,,,,,,,,,,
$GPGGA,193308.000,3713.9277,N,08025.5282,W,1,06,1.31,609.2,M,-32.8,M,,*5D,,,,,
$GPGSA,A,3,24,15,13,29,21,20,,,,,,,2.15,1.31,1.71*0A,,
$GPRMC,193308.000,A,3713.9277,N,08025.5282,W,0.03,288.18,041019,,,A*76,,,,,,,
$GPVTG,288.18,T,,M,0.03,N,0.05,K,A*30,,,,,,,,,,
$GPGGA,193309.000,3713.9278,N,08025.5282,W,1,06,1.31,609.2,M,-32.8,M,,*53,,,,,
$GPGSA,A,3,24,15,13,29,21,20,,,,,,,2.15,1.31,1.70*0B,,
$GPRMC,193309.000,A,3713.9278,N,08025.5282,W,0.02,91.10,041019,,,A*4B,,,,,,,
$GPVTG,91.10,T,,M,0.02,N,0.03,K,A*05,,,,,,,,,,
$GPGGA,193310.000,3713.9278,N,08025.5282,W,1,06,1.31,609.2,M,-32.8,M,,*5B,,,,,
$GPGSA,A,3,24,15,13,29,21,20,,,,,,,2.15,1.31,1.70*0B,,
$GPGSV,2,1,08,21,74,276,33,15,56,045,17,20,51,310,37,24,44,137,36*77
$GPGSV,2,2,08,13,21,045,37,29,11,195,34,05,04,093,32,49,,,*43
$GPRMC,193310.000,A,3713.9278,N,08025.5282,W,0.01,217.21,041019,,,A*7E,,,,,,,
$GPVTG,217.21,T,,M,0.01,N,0.02,K,A*39,,,,,,,,,,
$GPGGA,193311.000,3713.9278,N,08025.5282,W,1,06,1.31,609.2,M,-32.8,M,,*5A,,,,,
$GPGSA,A,3,24,15,13,29,21,20,,,,,,,2.15,1.31,1.70*0B,,
$GPRMC,193311.000,A,3713.9278,N,08025.5282,W,0.02,275.49,041019,,,A*76,,,,,,,
$GPVTG,275.49,T,,M,0.02,N,0.03,K,A*31,,,,,,,,,,
$GPGGA,193312.000,3713.9278,N,08025.5282,W,1,06,1.31,609.2,M,-32.8,M,,*59,,,,,
$GPGSA,A,3,24,15,13,29,21,20,,,,,,,2.15,1.31,1.70*0B,,
$GPRMC,193312.000,A,3713.9278,N,08025.5282,W,0.02,172.24,041019,,,A*7A,,,,,,,
$GPVTG,172.24,T,,M,0.02,N,0.03,K,A*3E,,,,,,,,,,
$GPGGA,193313.000,3713.9278,N,08025.5282,W,1,06,1.31,609.2,M,-32.8,M,,*58,,,,,
$GPGSA,A,3,24,15,13,29,21,20,,,,,,,2.15,1.31,1.70*0B,,
$GPRMC,193313.000,A,3713.9278,N,08025.5282,W,0.01,347.25,041019,,,A*7D,,,,,,,
$GPVTG,347.25,T,,M,0.01,N,0.01,K,A*3A,,,,,,,,,,
$GPGGA,193314.000,3713.9278,N,08025.5282,W,1,06,1.31,609.2,M,-32.8,M,,*5F,,,,,
$GPGSA,A,3,24,15,13,29,21,20,,,,,,,2.15,1.31,1.70*0B,,
$GPRMC,193314.000,A,3713.9278,N,08025.5282,W,0.03,288.46,041019,,,A*7F,,,,,,,
$GPVTG,288.46,T,,M,0.03,N,0.06,K,A*38,,,,,,,,,,
$GPGGA,193315.000,3713.9278,N,08025.5282,W,1,06,1.31,609.2,M,-32.8,M,,*5E,,,,,
$GPGSA,A,3,24,15,13,29,21,20,,,,,,,2.15,1.31,1.70*0B,,
$GPGSV,2,1,08,21,74,276,33,15,56,045,25,20,51,310,37,24,44,137,37*77
$GPGSV,2,2,08,13,21,045,37,29,11,195,34,05,04,093,30,37,,,*48
$GPRMC,193315.000,A,3713.9278,N,08025.5282,W,0.01,146.87,041019,,,A*70,,,,,,,
$GPVTG,146.87,T,,M,0.01,N,0.02,K,A*32,,,,,,,,,,
$GPGGA,193316.000,3713.9278,N,08025.5282,W,1,06,1.31,609.2,M,-32.8,M,,*5D,,,,,
$GPGSA,A,3,24,15,13,29,21,20,,,,,,,2.15,1.31,1.70*0B,,
$GPRMC,193316.000,A,3713.9278,N,08025.5282,W,0.02,17.47,041019,,,A*49,,,,,,,
$GPVTG,17.47,T,,M,0.02,N,0.03,K,A*09,,,,,,,,,,
$GPGGA,193317.000,3713.9278,N,08025.5282,W,1,06,1.31,609.2,M,-32.8,M,,*5C,,,,,
$GPGSA,A,3,24,15,13,29,21,20,,,,,,,2.15,1.31,1.70*0B,,
$GPRMC,193317.000,A,3713.9278,N,08025.5282,W,0.73,58.04,041019,,,A*42,,,,,,,
$GPVTG,58.04,T,,M,0.73,N,1.35,K,A*07,,,,,,,,,,
$GPGGA,193318.000,3713.9280,N,08025.5279,W,1,06,1.24,609.3,M,-32.8,M,,*55,,,,,
$GPGSA,A,3,24,15,13,29,21,20,,,,,,,1.51,1.24,0.86*04,,
$GPRMC,193318.000,A,3713.9280,N,08025.5279,W,1.54,59.16,041019,,,A*48,,,,,,,
$GPVTG,59.16,T,,M,1.54,N,2.86,K,A*0A,,,,,,,,,,
$GPGGA,193319.000,3713.9283,N,08025.5273,W,1,06,1.24,609.4,M,-32.8,M,,*5A,,,,,
$GPGSA,A,3,24,15,13,29,21,20,,,,,,,1.51,1.24,0.86*04,,
$GPRMC,193319.000,A,3713.9283,N,08025.5273,W,1.79,59.50,041019,,,A*4D,,,,,,,
$GPVTG,59.50,T,,M,1.79,N,3.31,K,A*0A,,,,,,,,,,
$GPGGA,193320.000,3713.9287,N,08025.5267,W,1,06,1.24,609.4,M,-32.8,M,,*51,,,,,
$GPGSA,A,3,24,15,13,29,21,20,,,,,,,1.51,1.24,0.86*04,,
$GPGSV,2,1,08,21,74,276,33,15,56,045,22,20,51,310,36,24,44,137,36*70
$GPGSV,2,2,08,13,21,045,38,29,11,195,32,05,04,093,33,37,,,*42
$GPRMC,193320.000,A,3713.9287,N,08025.5267,W,1.86,59.82,041019,,,A*49,,,,,,,
$GPVTG,59.82,T,,M,1.86,N,3.45,K,A*06,,,,,,,,,,
$GPGGA,193321.000,3713.9290,N,08025.5261,W,1,06,1.24,609.5,M,-32.8,M,,*51,,,,,
$GPGSA,A,3,24,15,13,29,21,20,,,,,,,1.51,1.24,0.86*04,,
$GPRMC,193321.000,A,3713.9290,N,08025.5261,W,1.76,48.05,041019,,,A*48,,,,,,,
$GPVTG,48.05,T,,M,1.76,N,3.25,K,A*00,,,,,,,,,,
$GPGGA,193322.000,3713.9294,N,08025.5256,W,1,06,1.24,609.6,M,-32.8,M,,*51,,,,,
$GPGSA,A,3,24,15,13,29,21,20,,,,,,,1.51,1.24,0.86*04,,
$GPRMC,193322.000,A,3713.9294,N,08025.5256,W,1.60,44.68,041019,,,A*4B,,,,,,,
$GPVTG,44.68,T,,M,1.60,N,2.97,K,A*08,,,,,,,,,,
$GPGGA,193323.000,3713.9298,N,08025.5251,W,1,06,1.24,609.7,M,-32.8,M,,*5A,,,,,
$GPGSA,A,3,24,15,13,29,21,20,,,,,,,1.51,1.24,0.86*04,,
$GPRMC,193323.000,A,3713.9298,N,08025.5251,W,1.76,59.67,041019,,,A*45,,,,,,,
$GPVTG,59.67,T,,M,1.76,N,3.26,K,A*07,,,,,,,,,,
$GPGGA,193324.000,3713.9302,N,08025.5245,W,1,06,1.24,609.8,M,-32.8,M,,*55,,,,,
$GPGSA,A,3,24,15,13,29,21,20,,,,,,,1.51,1.24,0.86*04,,
$GPRMC,193324.000,A,3713.9302,N,08025.5245,W,1.92,60.20,041019,,,A*46,,,,,,,
$GPVTG,60.20,T,,M,1.92,N,3.55,K,A*00,,,,,,,,,,
$GPGGA,193325.000,3713.9305,N,08025.5238,W,1,06,1.24,609.9,M,-32.8,M,,*58,,,,,
$GPGSA,A,3,24,15,13,29,21,20,,,,,,,1.51,1.24,0.86*04,,
$GPGSV,2,1,08,21,74,276,33,15,56,045,29,20,51,310,32,24,44,137,38*71
$GPGSV,2,2,08,13,21,045,40,29,11,195,36,05,04,093,33,39,,,*47
$GPRMC,193325.000,A,3713.9305,N,08025.5238,W,2.05,64.29,041019,,,A*4A,,,,,,,
$GPVTG,64.29,T,,M,2.05,N,3.80,K,A*08,,,,,,,,,,
$GPGGA,193326.000,3713.9308,N,08025.5231,W,1,06,1.24,610.0,M,-32.8,M,,*5E,,,,,
$GPGSA,A,3,24,15,13,29,21,20,,,,,,,1.51,1.24,0.86*04,,
$GPRMC,193326.000,A,3713.9308,N,08025.5231,W,2.03,60.06,041019,,,A*42,,,,,,,
$GPVTG,60.06,T,,M,2.03,N,3.76,K,A*0E,,,,,,,,,,
$GPGGA,193327.000,3713.9312,N,08025.5224,W,1,06,1.24,610.2,M,-32.8,M,,*52,,,,,
$GPGSA,A,3,24,15,13,29,21,20,,,,,,,1.51,1.24,0.86*04,,
$GPRMC,193327.000,A,3713.9312,N,08025.5224,W,1.99,54.37,041019,,,A*49,,,,,,,
$GPVTG,54.37,T,,M,1.99,N,3.68,K,A*04,,,,,,,,,,
$GPGGA,193328.000,3713.9316,N,08025.5217,W,1,06,1.24,610.3,M,-32.8,M,,*58,,,,,
$GPGSA,A,3,24,15,13,29,21,20,,,,,,,1.51,1.24,0.86*04,,
$GPRMC,193328.000,A,3713.9316,N,08025.5217,W,2.03,59.04,041019,,,A*4F,,,,,,,
$GPVTG,59.04,T,,M,2.03,N,3.75,K,A*05,,,,,,,,,,
$GPGGA,193329.000,3713.9319,N,08025.5210,W,1,06,1.24,610.5,M,-32.8,M,,*57,,,,,
$GPGSA,A,3,24,15,13,29,21,20,,,,,,,1.51,1.24,0.86*04,,
$GPRMC,193329.000,A,3713.9319,N,08025.5210,W,2.04,60.10,041019,,,A*4E,,,,,,,
$GPVTG,60.10,T,,M,2.04,N,3.78,K,A*00,,,,,,,,,,
$GPGGA,193330.000,3713.9322,N,08025.5203,W,1,06,1.24,610.6,M,-32.8,M,,*56,,,,,
$GPGSA,A,3,24,15,13,29,21,20,,,,,,,1.51,1.24,0.86*04,,
$GPGSV,2,1,08,21,74,276,33,15,56,045,30,20,51,310,32,24,44,137,38*79
$GPGSV,2,2,08,13,21,045,40,29,11,195,36,05,04,093,30,50,,,*4B
$GPRMC,193330.000,A,3713.9322,N,08025.5203,W,2.29,64.68,041019,,,A*48,,,,,,,
$GPVTG,64.68,T,,M,2.29,N,4.25,K,A*0B,,,,,,,,,,
$GPGGA,193331.000,3713.9325,N,08025.5195,W,1,06,1.24,610.7,M,-32.8,M,,*5D,,,,,
$GPGSA,A,3,24,15,13,29,21,20,,,,,,,1.51,1.24,0.86*04,,
$GPRMC,193331.000,A,3713.9325,N,08025.5195,W,2.06,67.59,041019,,,A*4E,,,,,,,
$GPVTG,67.59,T,,M,2.06,N,3.81,K,A*0E,,,,,,,,,,
$GPGGA,193332.000,3713.9328,N,08025.5188,W,1,06,1.24,610.9,M,-32.8,M,,*51,,,,,
$GPGSA,A,3,24,15,13,29,21,20,,,,,,,1.51,1.24,0.86*04,,
$GPRMC,193332.000,A,3713.9328,N,08025.5188,W,2.42,65.92,041019,,,A*49,,,,,,,
$GPVTG,65.92,T,,M,2.42,N,4.48,K,A*09,,,,,,,,,,
$GPGGA,193333.000,3713.9331,N,08025.5180,W,1,06,1.24,611.0,M,-32.8,M,,*58,,,,,
$GPGSA,A,3,24,15,13,29,21,20,,,,,,,1.51,1.24,0.86*04,,
$GPRMC,193333.000,A,3713.9331,N,08025.5180,W,2.23,59.31,041019,,,A*49,,,,,,,
$GPVTG,59.31,T,,M,2.23,N,4.12,K,A*07,,,,,,,,,,
$GPGGA,193334.000,3713.9334,N,08025.5173,W,1,06,1.24,611.2,M,-32.8,M,,*54,,,,,
$GPGSA,A,3,24,15,13,29,21,20,,,,,,,1.51,1.24,0.86*04,,
$GPRMC,193334.000,A,3713.9334,N,08025.5173,W,2.39,66.53,041019,,,A*44,,,,,,,
$GPVTG,66.53,T,,M,2.39,N,4.42,K,A*01,,,,,,,,,,
$GPGGA,193335.000,3713.9338,N,08025.5165,W,1,06,1.24,611.2,M,-32.8,M,,*5E,,,,,
$GPGSA,A,3,24,15,13,29,21,20,,,,,,,1.51,1.24,0.86*04,,
$GPGSV,2,1,08,21,74,276,34,15,56,045,22,20,52,311,34,24,44,137,38*79
$GPGSV,2,2,08,13,21,045,40,29,11,195,30,05,04,093,33,42,,,*4D
$GPRMC,193335.000,A,3713.9338,N,08025.5165,W,2.52,55.87,041019,,,A*4A,,,,,,,
$GPVTG,55.87,T,,M,2.52,N,4.67,K,A*02,,,,,,,,,,
$GPGGA,193336.000,3713.9342,N,08025.5158,W,1,06,1.24,611.3,M,-32.8,M,,*5F,,,,,
$GPGSA,A,3,24,15,13,29,21,20,,,,,,,1.51,1.24,0.86*04,,
$GPRMC,193336.000,A,3713.9342,N,08025.5158,W,2.33,51.30,041019,,,A*45,,,,,,,
$GPVTG,51.30,T,,M,2.33,N,4.31,K,A*0E,,,,,,,,,,
$GPGGA,193337.000,3713.9346,N,08025.5152,W,1,06,1.24,611.5,M,-32.8,M,,*56,,,,,
$GPGSA,A,3,24,15,13,29,21,20,,,,,,,1.51,1.24,0.86*04,,
$GPRMC,193337.000,A,3713.9346,N,08025.5152,W,2.44,50.14,041019,,,A*4D,,,,,,,
$GPVTG,50.14,T,,M,2.44,N,4.52,K,A*0C,,,,,,,,,,
$GPGGA,193338.000,3713.9351,N,08025.5145,W,1,06,1.24,611.6,M,-32.8,M,,*5A,,,,,
$GPGSA,A,3,24,15,13,29,21,20,,,,,,,1.51,1.24,0.86*04,,
$GPRMC,193338.000,A,3713.9351,N,08025.5145,W,2.54,53.44,041019,,,A*45,,,,,,,
$GPVTG,53.44,T,,M,2.54,N,4.72,K,A*09,,,,,,,,,,
$GPGGA,193339.000,3713.9355,N,08025.5138,W,1,06,1.24,611.8,M,-32.8,M,,*5B,,,,,
$GPGSA,A,3,24,15,13,29,21,20,,,,,,,1.51,1.24,0.86*04,,
$GPRMC,193339.000,A,3713.9355,N,08025.5138,W,2.19,51.59,041019,,,A*4D,,,,,,,
$GPVTG,51.59,T,,M,2.19,N,4.07,K,A*0C,,,,,,,,,,
$GPGGA,193340.000,3713.9359,N,08025.5131,W,1,06,1.24,612.0,M,-32.8,M,,*5B,,,,,
$GPGSA,A,3,24,15,13,29,21,20,,,,,,,1.51,1.24,0.86*04,,
$GPGSV,2,1,08,21,74,275,34,15,56,045,30,20,52,311,37,24,44,137,32*70
$GPGSV,2,2,08,13,21,045,38,29,11,195,30,05,04,093,24,42,,,*44
$GPRMC,193340.000,A,3713.9359,N,08025.5131,W,2.40,56.79,041019,,,A*4F,,,,,,,
$GPVTG,56.79,T,,M,2.40,N,4.45,K,A*03,,,,,,,,,,
$GPGGA,193341.000,3713.9364,N,08025.5125,W,1,06,1.24,612.2,M,-32.8,M,,*53,,,,,
$GPGSA,A,3,24,15,13,29,21,20,,,,,,,1.51,1.24,0.86*04,,
$GPRMC,193341.000,A,3713.9364,N,08025.5125,W,2.27,48.06,041019,,,A*43,,,,,,,
$GPVTG,48.06,T,,M,2.27,N,4.20,K,A*06,,,,,,,,,,
$GPGGA,193342.000,3713.9368,N,08025.5119,W,1,06,1.24,612.3,M,-32.8,M,,*52,,,,,
$GPGSA,A,3,24,15,13,29,21,20,,,,,,,1.51,1.24,0.86*04,,
$GPRMC,193342.000,A,3713.9368,N,08025.5119,W,2.09,42.64,041019,,,A*41,,,,,,,
$GPVTG,42.64,T,,M,2.09,N,3.88,K,A*01,,,,,,,,,,
$GPGGA,193343.000,3713.9373,N,08025.5114,W,1,06,1.24,612.5,M,-32.8,M,,*52,,,,,
$GPGSA,A,3,24,15,13,29,21,20,,,,,,,1.51,1.24,0.86*04,,
$GPRMC,193343.000,A,3713.9373,N,08025.5114,W,2.17,42.04,041019,,,A*4E,,,,,,,
$GPVTG,42.04,T,,M,2.17,N,4.01,K,A*0E,,,,,,,,,,
$GPGGA,193344.000,3713.9378,N,08025.5109,W,1,06,1.24,612.6,M,-32.8,M,,*51,,,,,
$GPGSA,A,3,24,15,13,29,21,20,,,,,,,1.51,1.24,0.86*04,,
$GPRMC,193344.000,A,3713.9378,N,08025.5109,W,2.16,44.59,041019,,,A*41,,,,,,,
$GPVTG,44.59,T,,M,2.16,N,3.99,K,A*07,,,,,,,,,,
$GPGGA,193345.000,3713.9382,N,08025.5103,W,1,06,1.24,612.7,M,-32.8,M,,*5E,,,,,
$GPGSA,A,3,24,15,13,29,21,20,,,,,,,1.51,1.24,0.86*04,,
$GPGSV,2,1,08,21,74,275,32,15,56,045,28,20,52,311,34,24,44,137,33*7D
$GPGSV,2,2,08,13,21,045,38,29,10,195,30,05,04,093,29,40,,,*4A
$GPRMC,193345.000,A,3713.9382,N,08025.5103,W,2.09,46.13,041019,,,A*4D,,,,,,,
$GPVTG,46.13,T,,M,2.09,N,3.87,K,A*0A,,,,,,,,,,
$GPGGA,193346.000,3713.9386,N,08025.5098,W,1,06,1.24,612.8,M,-32.8,M,,*55,,,,,
$GPGSA,A,3,24,15,13,29,21,20,,,,,,,1.51,1.24,0.86*04,,
$GPRMC,193346.000,A,3713.9386,N,08025.5098,W,2.19,51.70,041019,,,A*4B,,,,,,,
$GPVTG,51.70,T,,M,2.19,N,4.06,K,A*06,,,,,,,,,,
$GPGGA,193347.000,3713.9391,N,08025.5092,W,1,06,1.24,612.9,M,-32.8,M,,*59,,,,,
$GPGSA,A,3,24,15,13,29,21,20,,,,,,,1.51,1.24,0.86*04,,
$GPRMC,193347.000,A,3713.9391,N,08025.5092,W,2.28,48.46,041019,,,A*49,,,,,,,
$GPVTG,48.46,T,,M,2.28,N,4.23,K,A*0E,,,,,,,,,,
$GPGGA,193348.000,3713.9396,N,08025.5085,W,1,06,1.24,612.9,M,-32.8,M,,*57,,,,,
$GPGSA,A,3,24,15,13,29,21,20,,,,,,,1.51,1.24,0.86*04,,
$GPRMC,193348.000,A,3713.9396,N,08025.5085,W,2.60,43.10,041019,,,A*43,,,,,,,
$GPVTG,43.10,T,,M,2.60,N,4.81,K,A*02,,,,,,,,,,
$GPGGA,193349.000,3713.9401,N,08025.5080,W,1,06,1.24,613.0,M,-32.8,M,,*52,,,,,
$GPGSA,A,3,24,15,13,29,21,20,,,,,,,1.51,1.24,0.86*04,,
$GPRMC,193349.000,A,3713.9401,N,08025.5080,W,2.27,47.37,041019,,,A*4C,,,,,,,
$GPVTG,47.37,T,,M,2.27,N,4.20,K,A*0B,,,,,,,,,,
$GPGGA,193350.000,3713.9405,N,08025.5074,W,1,06,1.24,613.1,M,-32.8,M,,*54,,,,,
$GPGSA,A,3,24,15,13,29,21,20,,,,,,,1.51,1.24,0.86*04,,
$GPGSV,2,1,08,21,74,275,32,15,56,045,42,20,52,311,37,24,44,137,40*76
$GPGSV,2,2,08,13,21,045,37,29,10,195,32,05,04,093,23,44,,,*49
$GPRMC,193350.000,A,3713.9405,N,08025.5074,W,1.68,50.73,041019,,,A*45,,,,,,,
$GPVTG,50.73,T,,M,1.68,N,3.12,K,A*03,,,,,,,,,,
$GPGGA,193351.000,3713.9409,N,08025.5069,W,1,06,1.24,613.2,M,-32.8,M,,*56,,,,,
$GPGSA,A,3,24,15,13,29,21,20,,,,,,,1.51,1.24,0.86*04,,
$GPRMC,193351.000,A,3713.9409,N,08025.5069,W,2.11,48.15,041019,,,A*40,,,,,,,
$GPVTG,48.15,T,,M,2.11,N,3.91,K,A*0C,,,,,,,,,,
$GPGGA,193352.000,3713.9414,N,08025.5064,W,1,06,1.24,613.2,M,-32.8,M,,*54,,,,,
$GPGSA,A,3,24,15,13,29,21,20,,,,,,,1.51,1.24,0.86*04,,
$GPRMC,193352.000,A,3713.9414,N,08025.5064,W,2.14,39.75,041019,,,A*47,,,,,,,
$GPVTG,39.75,T,,M,2.14,N,3.97,K,A*0F,,,,,,,,,,
$GPGGA,193353.000,3713.9418,N,08025.5059,W,1,06,1.24,613.2,M,-32.8,M,,*57,,,,,
$GPGSA,A,3,24,15,13,29,21,20,,,,,,,1.51,1.24,0.86*04,,
$GPRMC,193353.000,A,3713.9418,N,08025.5059,W,2.38,50.69,041019,,,A*48,,,,,,,
$GPVTG,50.69,T,,M,2.38,N,4.41,K,A*0F,,,,,,,,,,
$GPGGA,193354.000,3713.9423,N,08025.5053,W,1,06,1.24,613.2,M,-32.8,M,,*52,,,,,
$GPGSA,A,3,24,15,13,29,21,20,,,,,,,1.51,1.24,0.86*04,,
$GPRMC,193354.000,A,3713.9423,N,08025.5053,W,2.18,38.09,041019,,,A*47,,,,,,,
$GPVTG,38.09,T,,M,2.18,N,4.04,K,A*04,,,,,,,,,,
$GPGGA,193355.000,3713.9429,N,08025.5049,W,1,06,1.24,613.3,M,-32.8,M,,*53,,,,,
$GPGSA,A,3,24,15,13,29,21,20,,,,,,,1.51,1.24,0.86*04,,
$GPGSV,2,1,08,21,74,275,36,15,56,045,42,20,52,311,40,24,44,137,38*7D
$GPGSV,2,2,08,51,38,219,29,13,21,045,37,29,10,195,35,05,04,093,21*72
$GPRMC,193355.000,A,3713.9429,N,08025.5049,W,2.45,36.77,041019,,,A*48,,,,,,,
$GPVTG,36.77,T,,M,2.45,N,4.54,K,A*0E,,,,,,,,,,
$GPGGA,193356.000,3713.9434,N,08025.5043,W,1,06,1.24,613.4,M,-32.8,M,,*51,,,,,
$GPGSA,A,3,24,15,13,29,21,20,,,,,,,1.51,1.24,0.86*04,,
$GPRMC,193356.000,A,3713.9434,N,08025.5043,W,2.38,42.90,041019,,,A*4D,,,,,,,
$GPVTG,42.90,T,,M,2.38,N,4.42,K,A*09,,,,,,,,,,
$GPGGA,193357.000,3713.9439,N,08025.5037,W,1,06,1.24,613.6,M,-32.8,M,,*5C,,,,,
$GPGSA,A,3,24,15,13,29,21,20,,,,,,,1.51,1.24,0.86*04,,
$GPRMC,193357.000,A,3713.9439,N,08025.5037,W,2.38,51.73,041019,,,A*4D,,,,,,,
$GPVTG,51.73,T,,M,2.38,N,4.41,K,A*05,,,,,,,,,,
$GPGGA,193358.000,3713.9444,N,08025.5031,W,1,06,1.24,613.7,M,-32.8,M,,*5E,,,,,
$GPGSA,A,3,24,15,13,29,21,20,,,,,,,1.51,1.24,0.86*04,,
$GPRMC,193358.000,A,3713.9444,N,08025.5031,W,2.48,44.76,041019,,,A*48,,,,,,,
$GPVTG,44.76,T,,M,2.48,N,4.59,K,A*0A,,,,,,,,,,
$GPGGA,193359.000,3713.9449,N,08025.5025,W,1,06,1.24,613.9,M,-32.8,M,,*59,,,,,
$GPGSA,A,3,24,15,13,29,21,20,,,,,,,1.51,1.24,0.86*04,,
$GPRMC,193359.000,A,3713.9449,N,08025.5025,W,2.49,51.30,041019,,,A*46,,,,,,,
$GPVTG,51.30,T,,M,2.49,N,4.62,K,A*05,,,,,,,,,,
$GPGGA,193400.000,3713.9454,N,08025.5019,W,1,06,1.24,614.0,M,-32.8,M,,*5F,,,,,
$GPGSA,A,3,24,15,13,29,21,20,,,,,,,1.51,1.24,0.86*04,,
$GPGSV,2,1,08,21,74,275,36,15,56,045,42,20,52,311,40,24,44,137,39*7C
$GPGSV,2,2,08,51,38,219,32,13,21,045,37,29,10,195,33,05,04,094,20*78
$GPRMC,193400.000,A,3713.9454,N,08025.5019,W,2.45,42.60,041019,,,A*45,,,,,,,
$GPVTG,42.60,T,,M,2.45,N,4.53,K,A*0C,,,,,,,,,,
$GPGGA,193401.000,3713.9458,N,08025.5013,W,1,06,1.24,614.1,M,-32.8,M,,*59,,,,,
$GPGSA,A,3,24,15,13,29,21,20,,,,,,,1.51,1.24,0.86*04,,
$GPRMC,193401.000,A,3713.9458,N,08025.5013,W,2.36,50.42,041019,,,A*45,,,,,,,
$GPVTG,50.42,T,,M,2.36,N,4.37,K,A*09,,,,,,,,,,
$GPGGA,193402.000,3713.9461,N,08025.5006,W,1,06,1.24,614.2,M,-32.8,M,,*57,,,,,
$GPGSA,A,3,24,15,13,29,21,20,,,,,,,1.51,1.24,0.86*04,,
$GPRMC,193402.000,A,3713.9461,N,08025.5006,W,2.41,52.23,041019,,,A*4D,,,,,,,
$GPVTG,52.23,T,,M,2.41,N,4.46,K,A*0A,,,,,,,,,,
$GPGGA,193403.000,3713.9466,N,08025.4999,W,1,06,1.24,614.3,M,-32.8,M,,*5E,,,,,
$GPGSA,A,3,24,15,13,29,21,20,,,,,,,1.51,1.24,0.86*04,,
$GPRMC,193403.000,A,3713.9466,N,08025.4999,W,2.72,53.65,041019,,,A*46,,,,,,,
$GPVTG,53.65,T,,M,2.72,N,5.05,K,A*0F,,,,,,,,,,
$GPGGA,193404.000,3713.9471,N,08025.4992,W,1,06,1.24,614.5,M,-32.8,M,,*52,,,,,
$GPGSA,A,3,24,15,13,29,21,20,,,,,,,1.51,1.24,0.86*04,,
$GPRMC,193404.000,A,3713.9471,N,08025.4992,W,2.79,41.77,041019,,,A*47,,,,,,,
$GPVTG,41.77,T,,M,2.79,N,5.17,K,A*07,,,,,,,,,,
$GPGGA,193405.000,3713.9476,N,08025.4985,W,1,06,1.24,614.6,M,-32.8,M,,*51,,,,,
$GPGSA,A,3,24,15,13,29,21,20,,,,,,,1.51,1.24,0.86*04,,
$GPGSV,2,1,08,21,74,275,36,15,56,045,40,20,52,311,40,24,44,137,38*7F
$GPGSV,2,2,08,51,38,219,31,13,21,045,37,29,10,195,32,05,04,094,20*7A
$GPRMC,193405.000,A,3713.9476,N,08025.4985,W,2.59,46.97,041019,,,A*4C,,,,,,,
$GPVTG,46.97,T,,M,2.59,N,4.79,K,A*05,,,,,,,,,,
$GPGGA,193406.000,3713.9481,N,08025.4979,W,1,06,1.24,614.8,M,-32.8,M,,*57,,,,,
$GPGSA,A,3,24,15,13,29,21,20,,,,,,,1.51,1.24,0.86*04,,
$GPRMC,193406.000,A,3713.9481,N,08025.4979,W,2.46,45.47,041019,,,A*44,,,,,,,
$GPVTG,45.47,T,,M,2.46,N,4.56,K,A*08,,,,,,,,,,
$GPGGA,193407.000,3713.9486,N,08025.4973,W,1,06,1.24,614.9,M,-32.8,M,,*5A,,,,,
$GPGSA,A,3,24,15,13,29,21,20,,,,,,,1.51,1.24,0.86*04,,
$GPRMC,193407.000,A,3713.9486,N,08025.4973,W,2.53,45.02,041019,,,A*4D,,,,,,,
$GPVTG,45.02,T,,M,2.53,N,4.69,K,A*01,,,,,,,,,,
$GPGGA,193408.000,3713.9490,N,08025.4967,W,1,06,1.24,615.0,M,-32.8,M,,*5F,,,,,
$GPGSA,A,3,24,15,13,29,21,20,,,,,,,1.51,1.24,0.86*04,,
$GPRMC,193408.000,A,3713.9490,N,08025.4967,W,2.59,45.98,041019,,,A*49,,,,,,,
$GPVTG,45.98,T,,M,2.59,N,4.80,K,A*0F,,,,,,,,,,
$GPGGA,193409.000,3713.9495,N,08025.4960,W,1,06,1.24,615.1,M,-32.8,M,,*5D,,,,,
$GPGSA,A,3,24,15,13,29,21,20,,,,,,,1.51,1.24,0.86*04,,
$GPRMC,193409.000,A,3713.9495,N,08025.4960,W,2.52,45.84,041019,,,A*4C,,,,,,,
$GPVTG,45.84,T,,M,2.52,N,4.67,K,A*00,,,,,,,,,,
$GPGGA,193410.000,3713.9500,N,08025.4954,W,1,06,1.24,615.2,M,-32.8,M,,*5C,,,,,
$GPGSA,A,3,24,15,13,29,21,20,,,,,,,1.51,1.24,0.86*04,,
$GPGSV,2,1,08,21,74,275,36,15,55,045,39,20,52,311,40,24,44,137,38*72
$GPGSV,2,2,08,51,38,219,31,13,21,045,34,29,10,195,30,05,04,094,18*70
$GPRMC,193410.000,A,3713.9500,N,08025.4954,W,2.48,44.37,041019,,,A*4C,,,,,,,
$GPVTG,44.37,T,,M,2.48,N,4.60,K,A*05,,,,,,,,,,
$GPGGA,193411.000,3713.9505,N,08025.4948,W,1,06,1.24,615.3,M,-32.8,M,,*54,,,,,
$GPGSA,A,3,24,15,13,29,21,20,,,,,,,1.51,1.24,0.86*04,,
$GPRMC,193411.000,A,3713.9505,N,08025.4948,W,2.49,45.04,041019,,,A*45,,,,,,,
$GPVTG,45.04,T,,M,2.49,N,4.61,K,A*04,,,,,,,,,,
$GPGGA,193412.000,3713.9510,N,08025.4942,W,1,06,1.24,615.4,M,-32.8,M,,*5E,,,,,
$GPGSA,A,3,24,15,13,29,21,20,,,,,,,1.51,1.24,0.86*04,,
$GPRMC,193412.000,A,3713.9510,N,08025.4942,W,2.53,46.00,041019,,,A*44,,,,,,,
$GPVTG,46.00,T,,M,2.53,N,4.69,K,A*00,,,,,,,,,,
$GPGGA,193413.000,3713.9515,N,08025.4935,W,1,06,1.24,615.4,M,-32.8,M,,*5A,,,,,
$GPGSA,A,3,24,15,13,29,21,20,,,,,,,1.51,1.24,0.86*04,,
$GPRMC,193413.000,A,3713.9515,N,08025.4935,W,2.54,50.00,041019,,,A*40,,,,,,,
$GPVTG,50.00,T,,M,2.54,N,4.71,K,A*09,,,,,,,,,,
$GPGGA,193414.000,3713.9519,N,08025.4929,W,1,06,1.24,615.5,M,-32.8,M,,*5D,,,,,
$GPGSA,A,3,24,15,13,29,21,20,,,,,,,1.51,1.24,0.86*04,,
$GPRMC,193414.000,A,3713.9519,N,08025.4929,W,2.46,50.25,041019,,,A*42,,,,,,,
$GPVTG,50.25,T,,M,2.46,N,4.56,K,A*08,,,,,,,,,,
$GPGGA,193415.000,3713.9524,N,08025.4923,W,1,06,1.24,615.5,M,-32.8,M,,*58,,,,,
$GPGSA,A,3,24,15,13,29,21,20,,,,,,,1.51,1.24,0.86*04,,
$GPGSV,2,1,08,21,74,274,35,15,55,045,39,20,52,311,41,24,44,137,34*7D
$GPGSV,2,2,08,51,38,219,30,13,21,045,30,29,10,195,23,05,04,094,18*77
$GPRMC,193415.000,A,3713.9524,N,08025.4923,W,2.39,46.15,041019,,,A*4B,,,,,,,
$GPVTG,46.15,T,,M,2.39,N,4.43,K,A*00,,,,,,,,,,
$GPGGA,193416.000,3713.9528,N,08025.4916,W,1,06,1.24,615.6,M,-32.8,M,,*52,,,,,
$GPGSA,A,3,24,15,13,29,21,20,,,,,,,1.51,1.24,0.86*04,,
$GPRMC,193416.000,A,3713.9528,N,08025.4916,W,2.50,47.71,041019,,,A*4E,,,,,,,
$GPVTG,47.71,T,,M,2.50,N,4.64,K,A*09,,,,,,,,,,
$GPGGA,193417.000,3713.9533,N,08025.4910,W,1,06,1.24,615.7,M,-32.8,M,,*5E,,,,,
$GPGSA,A,3,24,15,13,29,21,20,,,,,,,1.51,1.24,0.86*04,,
$GPRMC,193417.000,A,3713.9533,N,08025.4910,W,2.37,48.28,041019,,,A*41,,,,,,,
$GPVTG,48.28,T,,M,2.37,N,4.40,K,A*0D,,,,,,,,,,
$GPGGA,193418.000,3713.9537,N,08025.4903,W,1,06,1.24,615.8,M,-32.8,M,,*58,,,,,
$GPGSA,A,3,24,15,13,29,21,20,,,,,,,1.51,1.24,0.86*04,,
$GPRMC,193418.000,A,3713.9537,N,08025.4903,W,2.52,49.82,041019,,,A*4A,,,,,,,
$GPVTG,49.82,T,,M,2.52,N,4.68,K,A*05,,,,,,,,,,
$GPGGA,193419.000,3713.9541,N,08025.4897,W,1,06,1.24,615.8,M,-32.8,M,,*54,,,,,
$GPGSA,A,3,24,15,13,29,21,20,,,,,,,1.51,1.24,0.86*04,,
$GPRMC,193419.000,A,3713.9541,N,08025.4897,W,2.31,51.02,041019,,,A*42,,,,,,,
$GPVTG,51.02,T,,M,2.31,N,4.28,K,A*05,,,,,,,,,,
$GPGGA,193420.000,3713.9545,N,08025.4891,W,1,06,1.24,615.8,M,-32.8,M,,*5C,,,,,
$GPGSA,A,3,24,15,13,29,21,20,,,,,,,1.51,1.24,0.86*04,,
$GPGSV,2,1,08,21,74,274,35,15,55,045,39,20,52,311,41,24,44,137,37*7E
$GPGSV,2,2,08,51,38,219,29,13,21,045,30,29,10,195,26,05,04,094,18*7A
$GPRMC,193420.000,A,3713.9545,N,08025.4891,W,2.33,47.75,041019,,,A*4F,,,,,,,
$GPVTG,47.75,T,,M,2.33,N,4.32,K,A*0B,,,,,,,,,,
$GPGGA,193421.000,3713.9550,N,08025.4886,W,1,06,1.24,615.9,M,-32.8,M,,*5E,,,,,
$GPGSA,A,3,24,15,13,29,21,20,,,,,,,1.51,1.24,0.86*04,,
$GPRMC,193421.000,A,3713.9550,N,08025.4886,W,2.63,37.46,041019,,,A*4E,,,,,,,
$GPVTG,37.46,T,,M,2.63,N,4.87,K,A*07,,,,,,,,,,
$GPGGA,193422.000,3713.9556,N,08025.4880,W,1,06,1.24,615.9,M,-32.8,M,,*5D,,,,,
$GPGSA,A,3,24,15,13,29,21,20,,,,,,,1.51,1.24,0.86*04,,
$GPRMC,193422.000,A,3713.9556,N,08025.4880,W,2.31,45.24,041019,,,A*4B,,,,,,,
$GPVTG,45.24,T,,M,2.31,N,4.29,K,A*05,,,,,,,,,,
$GPGGA,193423.000,3713.9561,N,08025.4874,W,1,06,1.24,616.0,M,-32.8,M,,*59,,,,,
$GPGSA,A,3,24,15,13,29,21,20,,,,,,,1.51,1.24,0.86*04,,
$GPRMC,193423.000,A,3713.9561,N,08025.4874,W,2.58,36.06,041019,,,A*4E,,,,,,,
$GPVTG,36.06,T,,M,2.58,N,4.78,K,A*0A,,,,,,,,,,
$GPGGA,193424.000,3713.9566,N,08025.4868,W,1,06,1.24,616.1,M,-32.8,M,,*55,,,,,
$GPGSA,A,3,24,15,13,29,21,20,,,,,,,1.51,1.24,0.86*04,,
$GPRMC,193424.000,A,3713.9566,N,08025.4868,W,2.13,38.04,041019,,,A*40,,,,,,,
$GPVTG,38.04,T,,M,2.13,N,3.94,K,A*0C,,,,,,,,,,
$GPGGA,193425.000,3713.9573,N,08025.4864,W,1,06,1.24,616.1,M,-32.8,M,,*5C,,,,,
$GPGSA,A,3,24,15,13,29,21,20,,,,,,,1.51,1.24,0.86*04,,
$GPGSV,2,1,08,21,74,274,35,15,55,045,42,20,52,311,41,24,44,137,36*73
$GPGSV,2,2,08,51,38,219,30,13,21,045,28,29,10,195,22,05,04,094,17*70
$GPRMC,193425.000,A,3713.9573,N,08025.4864,W,2.68,28.62,041019,,,A*44,,,,,,,
$GPVTG,28.62,T,,M,2.68,N,4.97,K,A*05,,,,,,,,,,
$GPGGA,193426.000,3713.9579,N,08025.4860,W,1,06,1.24,616.1,M,-32.8,M,,*51,,,,,
$GPGSA,A,3,24,15,13,29,21,20,,,,,,,1.51,1.24,0.86*04,,
$GPRMC,193426.000,A,3713.9579,N,08025.4860,W,2.38,19.44,041019,,,A*4A,,,,,,,
$GPVTG,19.44,T,,M,2.38,N,4.41,K,A*0D,,,,,,,,,,
$GPGGA,193427.000,3713.9586,N,08025.4857,W,1,06,1.24,616.1,M,-32.8,M,,*54,,,,,
$GPGSA,A,3,24,15,13,29,21,20,,,,,,,1.51,1.24,0.86*04,,
$GPRMC,193427.000,A,3713.9586,N,08025.4857,W,2.51,16.20,041019,,,A*4D,,,,,,,
$GPVTG,16.20,T,,M,2.51,N,4.65,K,A*09,,,,,,,,,,
$GPGGA,193428.000,3713.9593,N,08025.4855,W,1,06,1.24,616.2,M,-32.8,M,,*5E,,,,,
$GPGSA,A,3,24,15,13,29,21,20,,,,,,,1.51,1.24,0.86*04,,
$GPRMC,193428.000,A,3713.9593,N,08025.4855,W,2.73,16.60,041019,,,A*40,,,,,,,
$GPVTG,16.60,T,,M,2.73,N,5.05,K,A*0A,,,,,,,,,,
$GPGGA,193429.000,3713.9601,N,08025.4853,W,1,06,1.24,616.2,M,-32.8,M,,*51,,,,,
$GPGSA,A,3,24,15,13,29,21,20,,,,,,,1.51,1.24,0.86*04,,
$GPRMC,193429.000,A,3713.9601,N,08025.4853,W,2.77,8.59,041019,,,A*7E,,,,,,,
$GPVTG,8.59,T,,M,2.77,N,5.13,K,A*3C,,,,,,,,,,
$GPGGA,193430.000,3713.9609,N,08025.4853,W,1,06,1.31,616.3,M,-32.8,M,,*54,,,,,
$GPGSA,A,3,24,15,13,29,21,20,,,,,,,2.13,1.31,1.68*04,,
$GPGSV,2,1,08,21,74,274,36,15,55,045,46,20,52,311,36,24,44,137,35*77
$GPGSV,2,2,08,51,38,219,37,13,21,045,20,29,10,195,33,05,04,094,18*70
$GPRMC,193430.000,A,3713.9609,N,08025.4853,W,2.68,358.62,041019,,,A*7E,,,,,,,
$GPVTG,358.62,T,,M,2.68,N,4.97,K,A*31,,,,,,,,,,
$GPGGA,193431.000,3713.9616,N,08025.4853,W,1,06,1.31,616.5,M,-32.8,M,,*5D,,,,,
$GPGSA,A,3,24,15,13,29,21,20,,,,,,,2.13,1.31,1.68*04,,
$GPRMC,193431.000,A,3713.9616,N,08025.4853,W,2.41,356.30,041019,,,A*73,,,,,,,
$GPVTG,356.30,T,,M,2.41,N,4.46,K,A*3F,,,,,,,,,,
$GPGGA,193432.000,3713.9623,N,08025.4854,W,1,06,1.31,616.7,M,-32.8,M,,*5D,,,,,
$GPGSA,A,3,24,15,13,29,21,20,,,,,,,2.13,1.31,1.68*04,,
$GPRMC,193432.000,A,3713.9623,N,08025.4854,W,2.62,350.92,041019,,,A*7E,,,,,,,
$GPVTG,350.92,T,,M,2.62,N,4.86,K,A*3C,,,,,,,,,,
$GPGGA,193433.000,3713.9630,N,08025.4856,W,1,06,1.31,616.8,M,-32.8,M,,*53,,,,,
$GPGSA,A,3,24,15,13,29,21,20,,,,,,,2.13,1.31,1.68*04,,
$GPRMC,193433.000,A,3713.9630,N,08025.4856,W,2.15,337.91,041019,,,A*7D,,,,,,,
$GPVTG,337.91,T,,M,2.15,N,3.99,K,A*37,,,,,,,,,,
$GPGGA,193434.000,3713.9637,N,08025.4859,W,1,06,1.24,617.0,M,-32.8,M,,*51,,,,,
$GPGSA,A,3,24,15,13,29,21,20,,,,,,,1.51,1.24,0.86*04,,
$GPRMC,193434.000,A,3713.9637,N,08025.4859,W,2.46,342.48,041019,,,A*72,,,,,,,
$GPVTG,342.48,T,,M,2.46,N,4.55,K,A*30,,,,,,,,,,
$GPGGA,193435.000,3713.9643,N,08025.4863,W,1,06,1.24,617.1,M,-32.8,M,,*5B,,,,,
$GPGSA,A,3,24,15,13,29,21,20,,,,,,,1.51,1.24,0.86*04,,
$GPGSV,2,1,08,21,74,274,36,15,55,045,45,20,52,311,34,24,44,137,35*76
$GPGSV,2,2,08,51,38,219,39,13,21,045,19,29,10,195,30,05,04,094,27*7B
$GPRMC,193435.000,A,3713.9643,N,08025.4863,W,2.46,324.08,041019,,,A*7D,,,,,,,
$GPVTG,324.08,T,,M,2.46,N,4.57,K,A*36,,,,,,,,,,
$GPGGA,193436.000,3713.9649,N,08025.4868,W,1,06,1.24,617.2,M,-32.8,M,,*5A,,,,,
$GPGSA,A,3,24,15,13,29,21,20,,,,,,,1.51,1.24,0.86*04,,
$GPRMC,193436.000,A,3713.9649,N,08025.4868,W,2.62,334.96,041019,,,A*7F,,,,,,,
$GPVTG,334.96,T,,M,2.62,N,4.86,K,A*3A,,,,,,,,,,
$GPGGA,193437.000,3713.9655,N,08025.4873,W,1,06,1.25,617.5,M,-32.8,M,,*5A,,,,,
$GPGSA,A,3,24,15,13,29,21,20,,,,,,,1.51,1.25,0.86*05,,
$GPRMC,193437.000,A,3713.9655,N,08025.4873,W,2.46,327.36,041019,,,A*77,,,,,,,
$GPVTG,327.36,T,,M,2.46,N,4.56,K,A*39,,,,,,,,,,
$GPGGA,193438.000,3713.9661,N,08025.4878,W,1,06,1.24,617.7,M,-32.8,M,,*5A,,,,,
$GPGSA,A,3,24,15,13,29,21,20,,,,,,,1.51,1.24,0.86*04,,
$GPRMC,193438.000,A,3713.9661,N,08025.4878,W,2.76,322.06,041019,,,A*71,,,,,,,
$GPVTG,322.06,T,,M,2.76,N,5.11,K,A*3E,,,,,,,,,,
$GPGGA,193439.000,3713.9667,N,08025.4883,W,1,06,1.24,617.9,M,-32.8,M,,*57,,,,,
$GPGSA,A,3,24,15,13,29,21,20,,,,,,,1.51,1.24,0.86*04,,
$GPRMC,193439.000,A,3713.9667,N,08025.4883,W,2.49,320.38,041019,,,A*71,,,,,,,
$GPVTG,320.38,T,,M,2.49,N,4.61,K,A*3B,,,,,,,,,,
$GPGGA,193440.000,3713.9673,N,08025.4889,W,1,06,1.24,618.1,M,-32.8,M,,*51,,,,,
$GPGSA,A,3,24,15,13,29,21,20,,,,,,,1.51,1.24,0.86*04,,
$GPGSV,3,1,09,21,74,274,31,15,55,045,43,20,52,311,33,24,44,137,34*71
$GPGSV,3,2,09,51,38,219,37,13,21,046,25,29,10,195,38,05,04,094,27*71
$GPGSV,3,3,09,10,,,39*7B,,,,,,,,,,,,
$GPRMC,193440.000,A,3713.9673,N,08025.4889,W,2.87,315.05,041019,,,A*7A,,,,,,,
$GPVTG,315.05,T,,M,2.87,N,5.31,K,A*35,,,,,,,,,,
$GPGGA,193441.000,3713.9678,N,08025.4894,W,1,06,1.24,618.2,M,-32.8,M,,*54,,,,,
$GPGSA,A,3,24,15,13,29,21,20,,,,,,,1.51,1.24,0.86*04,,
$GPRMC,193441.000,A,3713.9678,N,08025.4894,W,2.37,320.02,041019,,,A*76,,,,,,,
$GPVTG,320.02,T,,M,2.37,N,4.39,K,A*36,,,,,,,,,,
$GPGGA,193442.000,3713.9683,N,08025.4900,W,1,06,1.25,618.4,M,-32.8,M,,*58,,,,,
$GPGSA,A,3,24,15,13,29,21,20,,,,,,,1.51,1.25,0.86*05,,
$GPRMC,193442.000,A,3713.9683,N,08025.4900,W,2.35,315.73,041019,,,A*7F,,,,,,,
$GPVTG,315.73,T,,M,2.35,N,4.36,K,A*3B,,,,,,,,,,
$GPGGA,193443.000,3713.9688,N,08025.4906,W,1,06,1.24,618.5,M,-32.8,M,,*54,,,,,
$GPGSA,A,3,24,15,13,29,21,20,,,,,,,1.51,1.24,0.86*04,,
$GPRMC,193443.000,A,3713.9688,N,08025.4906,W,2.28,319.85,041019,,,A*7A,,,,,,,
$GPVTG,319.85,T,,M,2.28,N,4.23,K,A*36,,,,,,,,,,
$GPGGA,193444.000,3713.9694,N,08025.4912,W,1,06,1.25,618.7,M,-32.8,M,,*58,,,,,
$GPGSA,A,3,24,15,13,29,21,20,,,,,,,1.51,1.25,0.86*05,,
$GPRMC,193444.000,A,3713.9694,N,08025.4912,W,2.50,322.60,041019,,,A*79,,,,,,,
$GPVTG,322.60,T,,M,2.50,N,4.64,K,A*39,,,,,,,,,,
$GPGGA,193445.000,3713.9699,N,08025.4917,W,1,06,1.25,618.9,M,-32.8,M,,*5F,,,,,
$GPGSA,A,3,24,15,13,29,21,20,,,,,,,1.51,1.25,0.86*05,,
$GPGSV,3,1,09,21,74,274,31,15,55,045,43,20,52,311,33,24,44,137,34*71
$GPGSV,3,2,09,51,38,219,40,13,21,046,23,29,10,195,41,05,04,094,24*7A
$GPGSV,3,3,09,10,,,32*70,,,,,,,,,,,,
$GPRMC,193445.000,A,3713.9699,N,08025.4917,W,2.18,326.40,041019,,,A*7A,,,,,,,
$GPVTG,326.40,T,,M,2.18,N,4.04,K,A*35,,,,,,,,,,
$GPGGA,193446.000,3713.9705,N,08025.4922,W,1,06,1.24,619.1,M,-32.8,M,,*56,,,,,
$GPGSA,A,3,24,15,13,29,21,20,,,,,,,1.51,1.24,0.86*04,,
$GPRMC,193446.000,A,3713.9705,N,08025.4922,W,2.36,324.09,041019,,,A*78,,,,,,,
$GPVTG,324.09,T,,M,2.36,N,4.38,K,A*39,,,,,,,,,,
$GPGGA,193447.000,3713.9710,N,08025.4927,W,1,06,1.25,619.3,M,-32.8,M,,*55,,,,,
$GPGSA,A,3,24,15,13,29,21,20,,,,,,,1.51,1.25,0.86*05,,
$GPRMC,193447.000,A,3713.9710,N,08025.4927,W,2.55,324.52,041019,,,A*73,,,,,,,
$GPVTG,324.52,T,,M,2.55,N,4.73,K,A*3D,,,,,,,,,,
$GPGGA,193448.000,3713.9716,N,08025.4933,W,1,06,1.24,619.5,M,-32.8,M,,*5E,,,,,
$GPGSA,A,3,24,15,13,29,21,20,,,,,,,1.51,1.24,0.86*04,,
$GPRMC,193448.000,A,3713.9716,N,08025.4933,W,2.36,322.26,041019,,,A*7F,,,,,,,
$GPVTG,322.26,T,,M,2.36,N,4.37,K,A*3D,,,,,,,,,,
$GPGGA,193449.000,3713.9721,N,08025.4939,W,1,06,1.24,619.7,M,-32.8,M,,*53,,,,,
$GPGSA,A,3,24,15,13,29,21,20,,,,,,,1.51,1.24,0.86*04,,
$GPRMC,193449.000,A,3713.9721,N,08025.4939,W,2.97,313.22,041019,,,A*7D,,,,,,,
$GPVTG,313.22,T,,M,2.97,N,5.50,K,A*30,,,,,,,,,,
$GPGGA,193450.000,3713.9727,N,08025.4946,W,1,06,1.25,619.9,M,-32.8,M,,*5A,,,,,
$GPGSA,A,3,24,15,13,29,21,20,,,,,,,1.51,1.25,0.86*05,,
$GPGSV,3,1,09,21,74,273,32,15,55,045,43,20,52,311,31,24,44,136,34*76
$GPGSV,3,2,09,51,38,219,38,13,21,046,23,29,10,195,39,05,04,094,20*7E
$GPGSV,3,3,09,10,,,33*71,,,,,,,,,,,,
$GPRMC,193450.000,A,3713.9727,N,08025.4946,W,2.66,317.73,041019,,,A*75,,,,,,,
$GPVTG,317.73,T,,M,2.66,N,4.94,K,A*37,,,,,,,,,,
$GPGGA,193451.000,3713.9732,N,08025.4952,W,1,06,1.25,620.0,M,-32.8,M,,*59,,,,,
$GPGSA,A,3,24,15,13,29,21,20,,,,,,,1.51,1.25,0.86*05,,
$GPRMC,193451.000,A,3713.9732,N,08025.4952,W,2.40,324.94,041019,,,A*78,,,,,,,
$GPVTG,324.94,T,,M,2.40,N,4.46,K,A*35,,,,,,,,,,
$GPGGA,193452.000,3713.9738,N,08025.4957,W,1,06,1.25,620.2,M,-32.8,M,,*57,,,,,
$GPGSA,A,3,24,15,13,29,21,20,,,,,,,1.51,1.25,0.86*05,,
$GPRMC,193452.000,A,3713.9738,N,08025.4957,W,2.53,335.25,041019,,,A*7C,,,,,,,
$GPVTG,335.25,T,,M,2.53,N,4.68,K,A*31,,,,,,,,,,
$GPGGA,193453.000,3713.9744,N,08025.4962,W,1,06,1.24,620.4,M,-32.8,M,,*5C,,,,,
$GPGSA,A,3,24,15,13,29,21,20,,,,,,,1.51,1.24,0.86*04,,
$GPRMC,193453.000,A,3713.9744,N,08025.4962,W,2.68,325.15,041019,,,A*7A,,,,,,,
$GPVTG,325.15,T,,M,2.68,N,4.96,K,A*3A,,,,,,,,,,
$GPGGA,193454.000,3713.9750,N,08025.4967,W,1,06,1.25,620.5,M,-32.8,M,,*5B,,,,,
$GPGSA,A,3,24,15,13,29,21,20,,,,,,,1.51,1.25,0.86*05,,
$GPRMC,193454.000,A,3713.9750,N,08025.4967,W,2.35,328.95,041019,,,A*70,,,,,,,
$GPVTG,328.95,T,,M,2.35,N,4.35,K,A*3E,,,,,,,,,,
$GPGGA,193455.000,3713.9755,N,08025.4971,W,1,06,1.25,620.6,M,-32.8,M,,*5B,,,,,
$GPGSA,A,3,24,15,13,29,21,20,,,,,,,1.51,1.25,0.86*05,,
$GPGSV,3,1,09,21,74,273,33,15,55,045,44,20,52,311,31,24,44,136,34*70
$GPGSV,3,2,09,51,38,219,32,13,21,046,24,29,10,195,35,05,04,094,19*75
$GPGSV,3,3,09,10,,,33*71,,,,,,,,,,,,
$GPRMC,193455.000,A,3713.9755,N,08025.4971,W,2.31,321.71,041019,,,A*74,,,,,,,
$GPVTG,321.71,T,,M,2.31,N,4.28,K,A*35,,,,,,,,,,
$GPGGA,193456.000,3713.9760,N,08025.4975,W,1,06,1.25,620.6,M,-32.8,M,,*5A,,,,,
$GPGSA,A,3,24,15,13,29,21,20,,,,,,,1.51,1.25,0.86*05,,
$GPRMC,193456.000,A,3713.9760,N,08025.4975,W,1.90,337.66,041019,,,A*7C,,,,,,,
$GPVTG,337.66,T,,M,1.90,N,3.51,K,A*35,,,,,,,,,,
$GPGGA,193457.000,3713.9766,N,08025.4979,W,1,06,1.24,620.7,M,-32.8,M,,*51,,,,,
$GPGSA,A,3,24,15,13,29,21,20,,,,,,,1.51,1.24,0.86*04,,
$GPRMC,193457.000,A,3713.9766,N,08025.4979,W,2.48,334.02,041019,,,A*70,,,,,,,
$GPVTG,334.02,T,,M,2.48,N,4.60,K,A*37,,,,,,,,,,
$GPGGA,193458.000,3713.9771,N,08025.4983,W,1,06,1.25,620.8,M,-32.8,M,,*53,,,,,
$GPGSA,A,3,24,15,13,29,21,20,,,,,,,1.51,1.25,0.86*05,,
$GPRMC,193458.000,A,3713.9771,N,08025.4983,W,2.52,339.08,041019,,,A*70,,,,,,,
$GPVTG,339.08,T,,M,2.52,N,4.66,K,A*3D,,,,,,,,,,
$GPGGA,193459.000,3713.9777,N,08025.4988,W,1,06,1.25,620.9,M,-32.8,M,,*5E,,,,,
$GPGSA,A,3,24,15,13,29,21,20,,,,,,,1.51,1.25,0.86*05,,
$GPRMC,193459.000,A,3713.9777,N,08025.4988,W,2.64,328.52,041019,,,A*76,,,,,,,
$GPVTG,328.52,T,,M,2.64,N,4.89,K,A*36,,,,,,,,,,
$GPGGA,193500.000,3713.9783,N,08025.4993,W,1,06,1.25,621.0,M,-32.8,M,,*5A,,,,,
$GPGSA,A,3,24,15,13,29,21,20,,,,,,,1.51,1.25,0.86*05,,
$GPGSV,3,1,09,21,74,273,34,15,55,045,44,20,52,311,32,24,44,136,35*75
$GPGSV,3,2,09,51,38,219,37,13,21,046,24,29,10,195,31,05,04,094,15*78
$GPGSV,3,3,09,10,,,37*75,,,,,,,,,,,,
$GPRMC,193500.000,A,3713.9783,N,08025.4993,W,2.15,328.63,041019,,,A*7E,,,,,,,
$GPVTG,328.63,T,,M,2.15,N,3.98,K,A*35,,,,,,,,,,
$GPGGA,193501.000,3713.9789,N,08025.4997,W,1,06,1.25,621.2,M,-32.8,M,,*57,,,,,
$GPGSA,A,3,24,15,13,29,21,20,,,,,,,1.51,1.25,0.86*05,,
$GPRMC,193501.000,A,3713.9789,N,08025.4997,W,2.74,334.69,041019,,,A*71,,,,,,,
$GPVTG,334.69,T,,M,2.74,N,5.07,K,A*35,,,,,,,,,,
$GPGGA,193502.000,3713.9795,N,08025.5001,W,1,06,1.25,621.3,M,-32.8,M,,*5F,,,,,
$GPGSA,A,3,24,15,13,29,21,20,,,,,,,1.51,1.25,0.86*05,,
$GPRMC,193502.000,A,3713.9795,N,08025.5001,W,2.61,336.42,041019,,,A*77,,,,,,,
$GPVTG,336.42,T,,M,2.61,N,4.84,K,A*30,,,,,,,,,,
$GPGGA,193503.000,3713.9801,N,08025.5004,W,1,06,1.25,621.5,M,-32.8,M,,*5F,,,,,
$GPGSA,A,3,24,15,13,29,21,20,,,,,,,1.51,1.25,0.86*05,,
$GPRMC,193503.000,A,3713.9801,N,08025.5004,W,2.16,339.00,041019,,,A*78,,,,,,,
$GPVTG,339.00,T,,M,2.16,N,4.00,K,A*35,,,,,,,,,,
$GPGGA,193504.000,3713.9806,N,08025.5007,W,1,06,1.25,621.6,M,-32.8,M,,*5F,,,,,
$GPGSA,A,3,24,15,13,29,21,20,,,,,,,1.51,1.25,0.86*05,,
$GPRMC,193504.000,A,3713.9806,N,08025.5007,W,2.28,335.13,041019,,,A*78,,,,,,,
$GPVTG,335.13,T,,M,2.28,N,4.23,K,A*37,,,,,,,,,,
$GPGGA,193505.000,3713.9811,N,08025.5009,W,1,06,1.25,622.0,M,-32.8,M,,*53,,,,,
$GPGSA,A,3,24,15,13,29,21,20,,,,,,,1.51,1.25,0.86*05,,
$GPGSV,3,1,09,21,74,273,34,15,55,045,44,20,52,311,31,24,44,136,34*77
$GPGSV,3,2,09,51,38,219,36,13,21,046,31,29,10,195,31,05,04,094,17*7F
$GPGSV,3,3,09,10,,,36*74,,,,,,,,,,,,
$GPRMC,193505.000,A,3713.9811,N,08025.5009,W,1.98,348.43,041019,,,A*76,,,,,,,
$GPVTG,348.43,T,,M,1.98,N,3.67,K,A*37,,,,,,,,,,
$GPGGA,193506.000,3713.9816,N,08025.5010,W,1,06,1.31,622.1,M,-32.8,M,,*5B,,,,,
$GPGSA,A,3,24,15,13,29,21,20,,,,,,,2.12,1.31,1.66*0B,,
$GPRMC,193506.000,A,3713.9816,N,08025.5010,W,1.89,341.90,041019,,,A*7D,,,,,,,
$GPVTG,341.90,T,,M,1.89,N,3.50,K,A*34,,,,,,,,,,
$GPGGA,193507.000,3713.9822,N,08025.5012,W,1,06,1.25,622.2,M,-32.8,M,,*59,,,,,
$GPGSA,A,3,24,15,13,29,21,20,,,,,,,1.51,1.25,0.86*05,,
$GPRMC,193507.000,A,3713.9822,N,08025.5012,W,2.47,338.89,041019,,,A*7E,,,,,,,
$GPVTG,338.89,T,,M,2.47,N,4.57,K,A*33,,,,,,,,,,
$GPGGA,193508.000,3713.9827,N,08025.5013,W,1,06,1.25,622.4,M,-32.8,M,,*54,,,,,
$GPGSA,A,3,24,15,13,29,21,20,,,,,,,1.51,1.25,0.86*05,,
$GPRMC,193508.000,A,3713.9827,N,08025.5013,W,1.52,344.10,041019,,,A*79,,,,,,,
$GPVTG,344.10,T,,M,1.52,N,2.83,K,A*30,,,,,,,,,,
$GPGGA,193509.000,3713.9831,N,08025.5016,W,1,06,1.25,622.5,M,-32.8,M,,*56,,,,,
$GPGSA,A,3,24,15,13,29,21,20,,,,,,,1.51,1.25,0.86*05,,
$GPRMC,193509.000,A,3713.9831,N,08025.5016,W,1.79,331.84,041019,,,A*7C,,,,,,,
$GPVTG,331.84,T,,M,1.79,N,3.33,K,A*3C,,,,,,,,,,
$GPGGA,193510.000,3713.9836,N,08025.5018,W,1,06,1.25,622.7,M,-32.8,M,,*55,,,,,
$GPGSA,A,3,24,15,13,29,21,20,,,,,,,1.51,1.25,0.86*05,,
$GPGSV,3,1,09,21,74,273,35,15,55,045,44,20,52,311,32,24,44,136,34*75
$GPGSV,3,2,09,51,38,219,38,13,21,046,20,29,10,195,33,05,04,094,18*7C
$GPGSV,3,3,09,10,,,36*74,,,,,,,,,,,,
$GPRMC,193510.000,A,3713.9836,N,08025.5018,W,1.94,339.75,041019,,,A*78,,,,,,,
$GPVTG,339.75,T,,M,1.94,N,3.60,K,A*3F,,,,,,,,,,
$GPGGA,193511.000,3713.9842,N,08025.5021,W,1,06,1.25,622.9,M,-32.8,M,,*53,,,,,
$GPGSA,A,3,24,15,13,29,21,20,,,,,,,1.51,1.25,0.86*05,,
$GPRMC,193511.000,A,3713.9842,N,08025.5021,W,2.33,335.15,041019,,,A*74,,,,,,,
$GPVTG,335.15,T,,M,2.33,N,4.32,K,A*3B,,,,,,,,,,
$GPGGA,193512.000,3713.9847,N,08025.5024,W,1,06,1.25,623.2,M,-32.8,M,,*5A,,,,,
$GPGSA,A,3,24,15,13,29,21,20,,,,,,,1.51,1.25,0.86*05,,
$GPRMC,193512.000,A,3713.9847,N,08025.5024,W,2.35,326.63,041019,,,A*72,,,,,,,
$GPVTG,326.63,T,,M,2.35,N,4.35,K,A*39,,,,,,,,,,
$GPGGA,193513.000,3713.9851,N,08025.5028,W,1,06,1.25,623.5,M,-32.8,M,,*57,,,,,
$GPGSA,A,3,24,15,13,29,21,20,,,,,,,1.51,1.25,0.86*05,,
$GPRMC,193513.000,A,3713.9851,N,08025.5028,W,2.00,312.76,041019,,,A*7D,,,,,,,
$GPVTG,312.76,T,,M,2.00,N,3.70,K,A*3A,,,,,,,,,,
$GPGGA,193514.000,3713.9855,N,08025.5034,W,1,06,1.25,623.6,M,-32.8,M,,*5A,,,,,
$GPGSA,A,3,24,15,13,29,21,20,,,,,,,1.51,1.25,0.86*05,,
$GPRMC,193514.000,A,3713.9855,N,08025.5034,W,2.87,312.63,041019,,,A*78,,,,,,,
$GPVTG,312.63,T,,M,2.87,N,5.31,K,A*32,,,,,,,,,,
$GPGGA,193515.000,3713.9859,N,08025.5041,W,1,06,1.25,623.8,M,-32.8,M,,*5B,,,,,
$GPGSA,A,3,24,15,13,29,21,20,,,,,,,1.51,1.25,0.86*05,,
$GPGSV,3,1,10,21,74,273,29,15,55,045,41,20,52,311,25,24,44,136,31*76
$GPGSV,3,2,10,51,38,219,35,13,20,046,29,29,10,195,25,05,04,094,17*79
$GPGSV,3,3,10,10,,,36,27,,,28*73,,,,,,,,
$GPRMC,193515.000,A,3713.9859,N,08025.5041,W,2.09,305.08,041019,,,A*7A,,,,,,,
$GPVTG,305.08,T,,M,2.09,N,3.88,K,A*3B,,,,,,,,,,
$GPGGA,193516.000,3713.9864,N,08025.5049,W,1,06,1.25,624.0,M,-32.8,M,,*51,,,,,
$GPGSA,A,3,24,15,13,29,21,20,,,,,,,1.51,1.25,0.86*05,,
$GPRMC,193516.000,A,3713.9864,N,08025.5049,W,3.13,295.92,041019,,,A*7E,,,,,,,
$GPVTG,295.92,T,,M,3.13,N,5.81,K,A*35,,,,,,,,,,
$GPGGA,193517.000,3713.9867,N,08025.5056,W,1,06,1.25,624.1,M,-32.8,M,,*5C,,,,,
$GPGSA,A,3,24,15,13,29,21,20,,,,,,,1.51,1.25,0.86*05,,
$GPRMC,193517.000,A,3713.9867,N,08025.5056,W,2.07,305.34,041019,,,A*72,,,,,,,
$GPVTG,305.34,T,,M,2.07,N,3.84,K,A*36,,,,,,,,,,
$GPGGA,193518.000,3713.9871,N,08025.5063,W,1,06,1.25,624.3,M,-32.8,M,,*50,,,,,
$GPGSA,A,3,24,15,13,29,21,20,,,,,,,1.51,1.25,0.86*05,,
$GPRMC,193518.000,A,3713.9871,N,08025.5063,W,2.41,303.00,041019,,,A*7F,,,,,,,
$GPVTG,303.00,T,,M,2.41,N,4.46,K,A*3C,,,,,,,,,,
$GPGGA,193519.000,3713.9874,N,08025.5065,W,1,07,1.02,624.8,M,-32.8,M,,*5D,,,,,
$GPGSA,A,3,24,15,13,29,21,20,10,,,,,,1.32,1.02,0.83*01,,
$GPRMC,193519.000,A,3713.9874,N,08025.5065,W,2.26,287.52,041019,,,A*76,,,,,,,
$GPVTG,287.52,T,,M,2.26,N,4.19,K,A*3D,,,,,,,,,,
$GPGGA,193520.000,3713.9876,N,08025.5070,W,1,07,1.02,625.2,M,-32.8,M,,*5A,,,,,
$GPGSA,A,3,24,15,13,29,21,20,10,,,,,,1.32,1.02,0.83*01,,
$GPGSV,3,1,10,21,74,273,25,15,55,045,40,20,52,311,25,24,44,136,34*7E
$GPGSV,3,2,10,51,38,219,31,10,27,293,39,13,20,046,34,29,10,195,34*7D
$GPGSV,3,3,10,05,04,094,15,27,,,31*47,,,,,,,,
$GPRMC,193520.000,A,3713.9876,N,08025.5070,W,2.49,287.12,041019,,,A*77,,,,,,,
$GPVTG,287.12,T,,M,2.49,N,4.62,K,A*3C,,,,,,,,,,
$GPGGA,193521.000,3713.9877,N,08025.5075,W,1,07,1.02,625.4,M,-32.8,M,,*59,,,,,
$GPGSA,A,3,24,15,13,29,21,20,10,,,,,,1.32,1.02,0.83*01,,
$GPRMC,193521.000,A,3713.9877,N,08025.5075,W,2.35,269.55,041019,,,A*7A,,,,,,,
$GPVTG,269.55,T,,M,2.35,N,4.35,K,A*36,,,,,,,,,,
$GPGGA,193522.000,3713.9877,N,08025.5082,W,1,07,1.02,625.6,M,-32.8,M,,*50,,,,,
$GPGSA,A,3,24,15,13,29,21,20,10,,,,,,1.32,1.02,0.83*01,,
$GPRMC,193522.000,A,3713.9877,N,08025.5082,W,2.30,272.19,041019,,,A*76,,,,,,,
$GPVTG,272.19,T,,M,2.30,N,4.26,K,A*33,,,,,,,,,,
$GPGGA,193523.000,3713.9877,N,08025.5088,W,1,07,1.02,625.8,M,-32.8,M,,*55,,,,,
$GPGSA,A,3,24,15,13,29,21,20,10,,,,,,1.32,1.02,0.83*01,,
$GPRMC,193523.000,A,3713.9877,N,08025.5088,W,2.32,276.53,041019,,,A*75,,,,,,,
$GPVTG,276.53,T,,M,2.32,N,4.30,K,A*3C,,,,,,,,,,
$GPGGA,193524.000,3713.9879,N,08025.5094,W,1,07,1.02,625.9,M,-32.8,M,,*50,,,,,
$GPGSA,A,3,24,15,13,29,21,20,10,,,,,,1.32,1.02,0.83*01,,
$GPRMC,193524.000,A,3713.9879,N,08025.5094,W,2.28,277.07,041019,,,A*7A,,,,,,,
$GPVTG,277.07,T,,M,2.28,N,4.23,K,A*35,,,,,,,,,,
$GPGGA,193525.000,3713.9881,N,08025.5100,W,1,07,1.02,626.0,M,-32.8,M,,*50,,,,,
$GPGSA,A,3,24,15,13,29,21,20,10,,,,,,1.32,1.02,0.83*01,,
$GPGSV,3,1,10,21,74,272,29,15,55,045,41,20,52,311,33,24,44,136,38*79
$GPGSV,3,2,10,51,38,219,29,10,27,293,40,13,20,046,38,29,10,195,31*73
$GPGSV,3,3,10,05,04,094,17,27,,,29*4C,,,,,,,,
$GPRMC,193525.000,A,3713.9881,N,08025.5100,W,2.18,276.57,041019,,,A*77,,,,,,,
$GPVTG,276.57,T,,M,2.18,N,4.03,K,A*30,,,,,,,,,,
$GPGGA,193526.000,3713.9882,N,08025.5107,W,1,07,1.02,626.1,M,-32.8,M,,*56,,,,,
$GPGSA,A,3,24,15,13,29,21,20,10,,,,,,1.32,1.02,0.83*01,,
$GPRMC,193526.000,A,3713.9882,N,08025.5107,W,2.13,282.02,041019,,,A*70,,,,,,,
$GPVTG,282.02,T,,M,2.13,N,3.94,K,A*39,,,,,,,,,,
$GPGGA,193527.000,3713.9883,N,08025.5114,W,1,07,1.02,626.2,M,-32.8,M,,*57,,,,,
$GPGSA,A,3,24,15,13,29,21,20,10,,,,,,1.32,1.02,0.83*01,,
$GPRMC,193527.000,A,3713.9883,N,08025.5114,W,2.09,267.99,041019,,,A*70,,,,,,,
$GPVTG,267.99,T,,M,2.09,N,3.87,K,A*39,,,,,,,,,,
$GPGGA,193528.000,3713.9883,N,08025.5120,W,1,07,1.02,626.3,M,-32.8,M,,*5E,,,,,
$GPGSA,A,3,24,15,13,29,21,20,10,,,,,,1.32,1.02,0.83*01,,
$GPRMC,193528.000,A,3713.9883,N,08025.5120,W,1.95,274.53,041019,,,A*7A,,,,,,,
$GPVTG,274.53,T,,M,1.95,N,3.61,K,A*33,,,,,,,,,,
$GPGGA,193529.000,3713.9884,N,08025.5127,W,1,07,1.02,626.3,M,-32.8,M,,*5F,,,,,
$GPGSA,A,3,24,15,13,29,21,20,10,,,,,,1.32,1.02,0.83*01,,
$GPRMC,193529.000,A,3713.9884,N,08025.5127,W,2.14,265.46,041019,,,A*75,,,,,,,
$GPVTG,265.46,T,,M,2.14,N,3.96,K,A*35,,,,,,,,,,
$GPGGA,193530.000,3713.9883,N,08025.5134,W,1,07,1.02,626.4,M,-32.8,M,,*55,,,,,
$GPGSA,A,3,24,15,13,29,21,20,10,,,,,,1.32,1.02,0.83*01,,
$GPGSV,3,1,10,21,74,272,26,15,55,045,32,20,52,311,37,24,45,136,40*78
$GPGSV,3,2,10,51,38,219,38,10,27,293,37,13,20,046,28,29,10,195,20*72
$GPGSV,3,3,10,05,04,094,15,27,,,19*4D,,,,,,,,
$GPRMC,193530.000,A,3713.9883,N,08025.5134,W,2.07,253.29,041019,,,A*76,,,,,,,
$GPVTG,253.29,T,,M,2.07,N,3.83,K,A*3F,,,,,,,,,,
$GPGGA,193531.000,3713.9881,N,08025.5139,W,1,07,1.02,626.5,M,-32.8,M,,*5A,,,,,
$GPGSA,A,3,24,15,13,29,21,20,10,,,,,,1.32,1.02,0.83*01,,
$GPRMC,193531.000,A,3713.9881,N,08025.5139,W,1.78,237.13,041019,,,A*78,,,,,,,
$GPVTG,237.13,T,,M,1.78,N,3.31,K,A*36,,,,,,,,,,
$GPGGA,193532.000,3713.9879,N,08025.5145,W,1,07,1.02,626.5,M,-32.8,M,,*55,,,,,
$GPGSA,A,3,24,15,13,29,21,20,10,,,,,,1.32,1.02,0.83*01,,
$GPRMC,193532.000,A,3713.9879,N,08025.5145,W,2.07,244.69,041019,,,A*75,,,,,,,
$GPVTG,244.69,T,,M,2.07,N,3.84,K,A*3A,,,,,,,,,,
$GPGGA,193533.000,3713.9877,N,08025.5151,W,1,07,1.02,626.5,M,-32.8,M,,*5F,,,,,
$GPGSA,A,3,24,15,13,29,21,20,10,,,,,,1.32,1.02,0.83*01,,
$GPRMC,193533.000,A,3713.9877,N,08025.5151,W,2.29,240.72,041019,,,A*7D,,,,,,,
$GPVTG,240.72,T,,M,2.29,N,4.24,K,A*35,,,,,,,,,,
$GPGGA,193534.000,3713.9874,N,08025.5159,W,1,07,1.02,626.5,M,-32.8,M,,*53,,,,,
$GPGSA,A,3,24,15,13,29,21,20,10,,,,,,1.32,1.02,0.83*01,,
$GPRMC,193534.000,A,3713.9874,N,08025.5159,W,2.45,236.44,041019,,,A*7F,,,,,,,
$GPVTG,236.44,T,,M,2.45,N,4.55,K,A*3D,,,,,,,,,,
$GPGGA,193535.000,3713.9871,N,08025.5166,W,1,07,1.02,626.6,M,-32.8,M,,*58,,,,,
$GPGSA,A,3,24,15,13,29,21,20,10,,,,,,1.32,1.02,0.83*01,,
$GPGSV,3,1,10,21,74,272,30,15,55,045,37,20,52,311,40,24,45,136,39*74
$GPGSV,3,2,10,51,38,219,39,10,27,293,21,13,20,046,18,29,10,195,17*73
$GPGSV,3,3,10,05,04,094,18,27,,,20*4A,,,,,,,,
$GPRMC,193535.000,A,3713.9871,N,08025.5166,W,1.90,242.91,041019,,,A*77,,,,,,,
$GPVTG,242.91,T,,M,1.90,N,3.52,K,A*3D,,,,,,,,,,
$GPGGA,193536.000,3713.9868,N,08025.5173,W,1,07,1.02,626.6,M,-32.8,M,,*57,,,,,
$GPGSA,A,3,24,15,13,29,21,20,10,,,,,,1.32,1.02,0.83*01,,
$GPRMC,193536.000,A,3713.9868,N,08025.5173,W,2.33,235.82,041019,,,A*70,,,,,,,
$GPVTG,235.82,T,,M,2.33,N,4.32,K,A*34,,,,,,,,,,
$GPGGA,193537.000,3713.9864,N,08025.5181,W,1,07,1.02,626.8,M,-32.8,M,,*59,,,,,
$GPGSA,A,3,24,15,13,29,21,20,10,,,,,,1.32,1.02,0.83*01,,
$GPRMC,193537.000,A,3713.9864,N,08025.5181,W,2.57,229.80,041019,,,A*7D,,,,,,,
$GPVTG,229.80,T,,M,2.57,N,4.76,K,A*39,,,,,,,,,,
$GPGGA,193538.000,3713.9861,N,08025.5189,W,1,07,1.02,626.9,M,-32.8,M,,*5A,,,,,
$GPGSA,A,3,24,15,13,29,21,20,10,,,,,,1.32,1.02,0.83*01,,
$GPRMC,193538.000,A,3713.9861,N,08025.5189,W,2.81,243.13,041019,,,A*72,,,,,,,
$GPVTG,243.13,T,,M,2.81,N,5.22,K,A*34,,,,,,,,,,
$GPGGA,193539.000,3713.9857,N,08025.5199,W,1,07,1.02,627.0,M,-32.8,M,,*57,,,,,
$GPGSA,A,3,24,15,13,29,21,20,10,,,,,,1.32,1.02,0.83*01,,
$GPRMC,193539.000,A,3713.9857,N,08025.5199,W,3.11,235.98,041019,,,A*7D,,,,,,,
$GPVTG,235.98,T,,M,3.11,N,5.76,K,A*3F,,,,,,,,,,
$GPGGA,193540.000,3713.9852,N,08025.5208,W,1,07,1.02,627.0,M,-32.8,M,,*57,,,,,
$GPGSA,A,3,24,15,13,29,21,20,10,,,,,,1.32,1.02,0.83*01,,
$GPGSV,3,1,10,21,74,272,34,15,55,045,37,20,52,311,41,24,45,136,40*7F
$GPGSV,3,2,10,51,38,219,38,10,27,293,20,13,20,046,20,29,10,195,15*7A
$GPGSV,3,3,10,05,04,094,18,27,,,21*4B,,,,,,,,
$GPRMC,193540.000,A,3713.9852,N,08025.5208,W,3.17,235.67,041019,,,A*7B,,,,,,,
$GPVTG,235.67,T,,M,3.17,N,5.88,K,A*38,,,,,,,,,,
$GPGGA,193541.000,3713.9847,N,08025.5217,W,1,07,1.02,627.1,M,-32.8,M,,*5D,,,,,
$GPGSA,A,3,24,15,13,29,21,20,10,,,,,,1.32,1.02,0.83*01,,
$GPRMC,193541.000,A,3713.9847,N,08025.5217,W,2.77,232.53,041019,,,A*77,,,,,,,
$GPVTG,232.53,T,,M,2.77,N,5.13,K,A*3D,,,,,,,,,,
$GPGGA,193542.000,3713.9844,N,08025.5224,W,1,07,1.02,627.2,M,-32.8,M,,*5E,,,,,
$GPGSA,A,3,24,15,13,29,21,20,10,,,,,,1.32,1.02,0.83*01,,
$GPRMC,193542.000,A,3713.9844,N,08025.5224,W,2.53,238.49,041019,,,A*70,,,,,,,
$GPVTG,238.49,T,,M,2.53,N,4.69,K,A*36,,,,,,,,,,
$GPGGA,193543.000,3713.9840,N,08025.5231,W,1,07,1.02,627.3,M,-32.8,M,,*5E,,,,,
$GPGSA,A,3,24,15,13,29,21,20,10,,,,,,1.32,1.02,0.83*01,,
$GPRMC,193543.000,A,3713.9840,N,08025.5231,W,2.28,234.57,041019,,,A*7E,,,,,,,
$GPVTG,234.57,T,,M,2.28,N,4.22,K,A*36,,,,,,,,,,
$GPGGA,193544.000,3713.9836,N,08025.5239,W,1,07,1.02,627.5,M,-32.8,M,,*56,,,,,
$GPGSA,A,3,24,15,13,29,21,20,10,,,,,,1.32,1.02,0.83*01,,
$GPRMC,193544.000,A,3713.9836,N,08025.5239,W,2.82,235.02,041019,,,A*71,,,,,,,
$GPVTG,235.02,T,,M,2.82,N,5.22,K,A*36,,,,,,,,,,
$GPGGA,193545.000,3713.9832,N,08025.5246,W,1,07,1.02,627.6,M,-32.8,M,,*58,,,,,
$GPGSA,A,3,24,15,13,29,21,20,10,,,,,,1.32,1.02,0.83*01,,
$GPGSV,3,1,10,21,74,272,35,15,55,045,36,20,52,311,41,24,45,136,40*7F
$GPGSV,3,2,10,51,38,219,37,10,27,293,25,13,20,046,19,29,10,195,16*79
$GPGSV,3,3,10,05,04,094,21,27,,,19*4A,,,,,,,,
$GPRMC,193545.000,A,3713.9832,N,08025.5246,W,2.66,238.80,041019,,,A*71,,,,,,,
$GPVTG,238.80,T,,M,2.66,N,4.93,K,A*30,,,,,,,,,,
$GPGGA,193546.000,3713.9828,N,08025.5254,W,1,07,1.02,627.7,M,-32.8,M,,*52,,,,,
$GPGSA,A,3,24,15,13,29,21,20,10,,,,,,1.32,1.02,0.83*01,,
$GPRMC,193546.000,A,3713.9828,N,08025.5254,W,2.55,238.87,041019,,,A*7D,,,,,,,
$GPVTG,238.87,T,,M,2.55,N,4.73,K,A*39,,,,,,,,,,
$GPGGA,193547.000,3713.9824,N,08025.5261,W,1,07,1.02,627.9,M,-32.8,M,,*57,,,,,
$GPGSA,A,3,24,15,13,29,21,20,10,,,,,,1.32,1.02,0.83*01,,
$GPRMC,193547.000,A,3713.9824,N,08025.5261,W,2.46,233.48,041019,,,A*7C,,,,,,,
$GPVTG,233.48,T,,M,2.46,N,4.55,K,A*37,,,,,,,,,,
$GPGGA,193548.000,3713.9821,N,08025.5268,W,1,07,1.02,628.0,M,-32.8,M,,*52,,,,,
$GPGSA,A,3,24,15,13,29,21,20,10,,,,,,1.32,1.02,0.83*01,,
$GPRMC,193548.000,A,3713.9821,N,08025.5268,W,2.64,236.19,041019,,,A*7E,,,,,,,
$GPVTG,236.19,T,,M,2.64,N,4.90,K,A*3F,,,,,,,,,,
$GPGGA,193549.000,3713.9817,N,08025.5275,W,1,07,1.02,628.1,M,-32.8,M,,*5B,,,,,
$GPGSA,A,3,24,15,13,29,21,20,10,,,,,,1.32,1.02,0.83*01,,
$GPRMC,193549.000,A,3713.9817,N,08025.5275,W,2.93,235.67,041019,,,A*74,,,,,,,
$GPVTG,235.67,T,,M,2.93,N,5.42,K,A*33,,,,,,,,,,
$GPGGA,193550.000,3713.9814,N,08025.5282,W,1,07,1.02,628.2,M,-32.8,M,,*5B,,,,,
$GPGSA,A,3,24,15,13,29,21,20,10,,,,,,1.32,1.02,0.83*01,,
$GPGSV,3,1,10,21,74,272,34,15,55,045,36,20,52,311,41,24,45,136,40*7E
$GPGSV,3,2,10,51,38,219,34,10,28,294,26,13,20,046,19,29,10,195,15*72
$GPGSV,3,3,10,05,04,094,22,27,,,20*43,,,,,,,,
$GPRMC,193550.000,A,3713.9814,N,08025.5282,W,2.32,237.36,041019,,,A*7A,,,,,,,
$GPVTG,237.36,T,,M,2.32,N,4.29,K,A*32,,,,,,,,,,
$GPGGA,193551.000,3713.9810,N,08025.5289,W,1,07,1.02,628.3,M,-32.8,M,,*54,,,,,
$GPGSA,A,3,24,15,13,29,21,20,10,,,,,,1.32,1.02,0.83*01,,
$GPRMC,193551.000,A,3713.9810,N,08025.5289,W,2.60,235.06,041019,,,A*72,,,,,,,
$GPVTG,235.06,T,,M,2.60,N,4.82,K,A*35,,,,,,,,,,
$GPGGA,193552.000,3713.9806,N,08025.5296,W,1,07,1.02,628.4,M,-32.8,M,,*59,,,,,
$GPGSA,A,3,24,15,13,29,21,20,10,,,,,,1.32,1.02,0.83*01,,
$GPRMC,193552.000,A,3713.9806,N,08025.5296,W,2.69,235.99,041019,,,A*77,,,,,,,
$GPVTG,235.99,T,,M,2.69,N,4.99,K,A*30,,,,,,,,,,
$GPGGA,193553.000,3713.9802,N,08025.5304,W,1,07,1.02,628.5,M,-32.8,M,,*57,,,,,
$GPGSA,A,3,24,15,13,29,21,20,10,,,,,,1.32,1.02,0.83*01,,
$GPRMC,193553.000,A,3713.9802,N,08025.5304,W,2.65,239.77,041019,,,A*78,,,,,,,
$GPVTG,239.77,T,,M,2.65,N,4.91,K,A*38,,,,,,,,,,
$GPGGA,193554.000,3713.9799,N,08025.5311,W,1,07,1.02,628.7,M,-32.8,M,,*5B,,,,,
$GPGSA,A,3,24,15,13,29,21,20,10,,,,,,1.32,1.02,0.83*01,,
$GPRMC,193554.000,A,3713.9799,N,08025.5311,W,2.54,240.35,041019,,,A*7C,,,,,,,
$GPVTG,240.35,T,,M,2.54,N,4.71,K,A*3C,,,,,,,,,,
$GPGGA,193555.000,3713.9795,N,08025.5319,W,1,07,1.02,628.8,M,-32.8,M,,*51,,,,,
$GPGSA,A,3,24,15,13,29,21,20,10,,,,,,1.32,1.02,0.83*01,,
$GPGSV,3,1,10,21,74,272,34,15,54,045,36,20,52,311,42,24,45,136,40*7C
$GPGSV,3,2,10,51,38,219,30,10,28,294,29,13,20,046,19,29,10,195,15*79
$GPGSV,3,3,10,05,04,094,26,27,,,19*4D,,,,,,,,
$GPRMC,193555.000,A,3713.9795,N,08025.5319,W,2.69,230.81,041019,,,A*7F,,,,,,,
$GPVTG,230.81,T,,M,2.69,N,4.99,K,A*3C,,,,,,,,,,
$GPGGA,193556.000,3713.9790,N,08025.5326,W,1,07,1.02,628.8,M,-32.8,M,,*5B,,,,,
$GPGSA,A,3,24,15,13,29,21,20,10,,,,,,1.32,1.02,0.83*01,,
$GPRMC,193556.000,A,3713.9790,N,08025.5326,W,2.64,234.22,041019,,,A*75,,,,,,,
$GPVTG,234.22,T,,M,2.64,N,4.88,K,A*3C,,,,,,,,,,
$GPGGA,193557.000,3713.9787,N,08025.5333,W,1,06,1.34,628.9,M,-32.8,M,,*5D,,,,,
$GPGSA,A,3,24,15,13,21,20,10,,,,,,,1.62,1.34,0.91*09,,
$GPRMC,193557.000,A,3713.9787,N,08025.5333,W,2.57,238.15,041019,,,A*7E,,,,,,,
$GPVTG,238.15,T,,M,2.57,N,4.76,K,A*35,,,,,,,,,,
$GPGGA,193558.000,3713.9784,N,08025.5340,W,1,07,1.02,628.9,M,-32.8,M,,*51,,,,,
$GPGSA,A,3,24,15,13,29,21,20,10,,,,,,1.32,1.02,0.83*01,,
$GPRMC,193558.000,A,3713.9784,N,08025.5340,W,2.51,230.75,041019,,,A*7E,,,,,,,
$GPVTG,230.75,T,,M,2.51,N,4.65,K,A*3F,,,,,,,,,,
$GPGGA,193559.000,3713.9780,N,08025.5347,W,1,07,1.02,628.7,M,-32.8,M,,*5D,,,,,
$GPGSA,A,3,24,15,13,29,21,20,10,,,,,,1.32,1.02,0.83*01,,
$GPRMC,193559.000,A,3713.9780,N,08025.5347,W,2.41,247.91,041019,,,A*77,,,,,,,
$GPVTG,247.91,T,,M,2.41,N,4.47,K,A*34,,,,,,,,,,
$GPGGA,193600.000,3713.9778,N,08025.5353,W,1,07,1.02,628.7,M,-32.8,M,,*50,,,,,
$GPGSA,A,3,24,15,13,29,21,20,10,,,,,,1.32,1.02,0.83*01,,
$GPGSV,3,1,10,21,74,272,34,15,54,045,38,20,52,312,44,24,45,136,40*77
$GPGSV,3,2,10,51,38,219,30,10,28,294,30,13,20,046,18,29,10,195,16*73
$GPGSV,3,3,10,05,04,094,22,27,,,18*48,,,,,,,,
$GPRMC,193600.000,A,3713.9778,N,08025.5353,W,2.32,236.57,041019,,,A*72,,,,,,,
$GPVTG,236.57,T,,M,2.32,N,4.29,K,A*34,,,,,,,,,,
$GPGGA,193601.000,3713.9773,N,08025.5360,W,1,07,1.02,628.7,M,-32.8,M,,*5A,,,,,
$GPGSA,A,3,24,15,13,29,21,20,10,,,,,,1.32,1.02,0.83*01,,
$GPRMC,193601.000,A,3713.9773,N,08025.5360,W,2.80,234.31,041019,,,A*73,,,,,,,
$GPVTG,234.31,T,,M,2.80,N,5.19,K,A*3D,,,,,,,,,,
$GPGGA,193602.000,3713.9770,N,08025.5367,W,1,07,1.02,628.7,M,-32.8,M,,*5D,,,,,
$GPGSA,A,3,24,15,13,29,21,20,10,,,,,,1.32,1.02,0.83*01,,
$GPRMC,193602.000,A,3713.9770,N,08025.5367,W,2.30,242.56,041019,,,A*7F,,,,,,,
$GPVTG,242.56,T,,M,2.30,N,4.26,K,A*3B,,,,,,,,,,
$GPGGA,193603.000,3713.9768,N,08025.5373,W,1,07,1.02,628.6,M,-32.8,M,,*51,,,,,
$GPGSA,A,3,24,15,13,29,21,20,10,,,,,,1.32,1.02,0.83*01,,
$GPRMC,193603.000,A,3713.9768,N,08025.5373,W,2.31,234.41,041019,,,A*74,,,,,,,
$GPVTG,234.41,T,,M,2.31,N,4.28,K,A*33,,,,,,,,,,
$GPGGA,193604.000,3713.9766,N,08025.5378,W,1,07,1.02,628.6,M,-32.8,M,,*53,,,,,
$GPGSA,A,3,24,15,13,29,21,20,10,,,,,,1.32,1.02,0.83*01,,
$GPRMC,193604.000,A,3713.9766,N,08025.5378,W,2.40,233.39,041019,,,A*78,,,,,,,
$GPVTG,233.39,T,,M,2.40,N,4.44,K,A*37,,,,,,,,,,
$GPGGA,193605.000,3713.9764,N,08025.5384,W,1,07,1.02,628.6,M,-32.8,M,,*53,,,,,
$GPGSA,A,3,24,15,13,29,21,20,10,,,,,,1.32,1.02,0.83*01,,
$GPGSV,3,1,10,21,74,271,35,15,54,045,39,20,52,312,38,24,45,136,41*7E
$GPGSV,3,2,10,51,38,219,25,10,28,294,37,13,20,046,30,29,10,195,17*7B
$GPGSV,3,3,10,05,04,094,22,27,,,30*42,,,,,,,,
$GPRMC,193605.000,A,3713.9764,N,08025.5384,W,2.36,242.78,041019,,,A*7A,,,,,,,
$GPVTG,242.78,T,,M,2.36,N,4.38,K,A*3E,,,,,,,,,,
$GPGGA,193606.000,3713.9762,N,08025.5391,W,1,07,1.02,628.7,M,-32.8,M,,*53,,,,,
$GPGSA,A,3,24,15,13,29,21,20,10,,,,,,1.32,1.02,0.83*01,,
$GPRMC,193606.000,A,3713.9762,N,08025.5391,W,2.78,239.58,041019,,,A*7F,,,,,,,
$GPVTG,239.58,T,,M,2.78,N,5.16,K,A*37,,,,,,,,,,
$GPGGA,193607.000,3713.9759,N,08025.5398,W,1,07,1.02,628.8,M,-32.8,M,,*5C,,,,,
$GPGSA,A,3,24,15,13,29,21,20,10,,,,,,1.32,1.02,0.83*01,,
$GPRMC,193607.000,A,3713.9759,N,08025.5398,W,2.62,231.68,041019,,,A*7F,,,,,,,
$GPVTG,231.68,T,,M,2.62,N,4.85,K,A*3C,,,,,,,,,,
$GPGGA,193608.000,3713.9755,N,08025.5405,W,1,07,1.02,628.9,M,-32.8,M,,*5D,,,,,
$GPGSA,A,3,24,15,13,29,21,20,10,,,,,,1.32,1.02,0.83*01,,
$GPRMC,193608.000,A,3713.9755,N,08025.5405,W,3.00,234.05,041019,,,A*74,,,,,,,
$GPVTG,234.05,T,,M,3.00,N,5.55,K,A*3B,,,,,,,,,,
$GPGGA,193609.000,3713.9751,N,08025.5412,W,1,07,1.02,628.9,M,-32.8,M,,*5E,,,,,
$GPGSA,A,3,24,15,13,29,21,20,10,,,,,,1.32,1.02,0.83*01,,
$GPRMC,193609.000,A,3713.9751,N,08025.5412,W,3.13,225.17,041019,,,A*76,,,,,,,
$GPVTG,225.17,T,,M,3.13,N,5.80,K,A*32,,,,,,,,,,
$GPGGA,193610.000,3713.9745,N,08025.5419,W,1,07,1.02,629.0,M,-32.8,M,,*50,,,,,
$GPGSA,A,3,24,15,13,29,21,20,10,,,,,,1.32,1.02,0.83*01,,
$GPGSV,3,1,10,21,74,271,32,15,54,045,40,20,52,312,38,24,45,136,29*79
$GPGSV,3,2,10,51,38,219,24,10,28,294,35,13,20,046,28,29,09,195,16*78
$GPGSV,3,3,10,05,04,094,30,27,,,37*46,,,,,,,,
$GPRMC,193610.000,A,3713.9745,N,08025.5419,W,3.14,216.93,041019,,,A*7B,,,,,,,
$GPVTG,216.93,T,,M,3.14,N,5.82,K,A*3B,,,,,,,,,,
$GPGGA,193611.000,3713.9742,N,08025.5425,W,1,07,1.02,629.1,M,-32.8,M,,*58,,,,,
$GPGSA,A,3,24,15,13,29,21,20,10,,,,,,1.32,1.02,0.83*01,,
$GPRMC,193611.000,A,3713.9742,N,08025.5425,W,2.49,239.59,041019,,,A*70,,,,,,,
$GPVTG,239.59,T,,M,2.49,N,4.62,K,A*36,,,,,,,,,,
$GPGGA,193612.000,3713.9740,N,08025.5432,W,1,07,1.02,629.2,M,-32.8,M,,*5C,,,,,
$GPGSA,A,3,24,15,13,29,21,20,10,,,,,,1.32,1.02,0.83*01,,
$GPRMC,193612.000,A,3713.9740,N,08025.5432,W,2.38,229.69,041019,,,A*73,,,,,,,
$GPVTG,229.69,T,,M,2.38,N,4.41,K,A*33,,,,,,,,,,
$GPGGA,193613.000,3713.9738,N,08025.5439,W,1,07,1.02,629.2,M,-32.8,M,,*59,,,,,
$GPGSA,A,3,24,15,13,29,21,20,10,,,,,,1.32,1.02,0.83*01,,
$GPRMC,193613.000,A,3713.9738,N,08025.5439,W,2.94,234.56,041019,,,A*70,,,,,,,
$GPVTG,234.56,T,,M,2.94,N,5.44,K,A*31,,,,,,,,,,
$GPGGA,193614.000,3713.9734,N,08025.5447,W,1,07,1.02,629.2,M,-32.8,M,,*5B,,,,,
$GPGSA,A,3,24,15,13,29,21,20,10,,,,,,1.32,1.02,0.83*01,,
$GPRMC,193614.000,A,3713.9734,N,08025.5447,W,2.67,244.08,041019,,,A*72,,,,,,,
$GPVTG,244.08,T,,M,2.67,N,4.94,K,A*3D,,,,,,,,,,
$GPGGA,193615.000,3713.9731,N,08025.5454,W,1,07,1.02,629.3,M,-32.8,M,,*5C,,,,,
$GPGSA,A,3,24,15,13,29,21,20,10,,,,,,1.32,1.02,0.83*01,,
$GPGSV,3,1,10,21,74,271,29,15,54,045,40,20,52,312,39,24,45,136,29*72
$GPGSV,3,2,10,51,38,219,36,10,28,294,35,13,20,046,24,29,09,195,16*77
$GPGSV,3,3,10,05,04,094,23,27,,,35*46,,,,,,,,
$GPRMC,193615.000,A,3713.9731,N,08025.5454,W,2.47,236.58,041019,,,A*76,,,,,,,
$GPVTG,236.58,T,,M,2.47,N,4.59,K,A*3E,,,,,,,,,,
$GPGGA,193616.000,3713.9726,N,08025.5460,W,1,07,1.02,629.3,M,-32.8,M,,*5E,,,,,
$GPGSA,A,3,24,15,13,29,21,20,10,,,,,,1.32,1.02,0.83*01,,
$GPRMC,193616.000,A,3713.9726,N,08025.5460,W,3.43,215.31,041019,,,A*7F,,,,,,,
$GPVTG,215.31,T,,M,3.43,N,6.36,K,A*3E,,,,,,,,,,
$GPGGA,193617.000,3713.9724,N,08025.5467,W,1,07,1.02,629.4,M,-32.8,M,,*5D,,,,,
$GPGSA,A,3,24,15,13,29,21,20,10,,,,,,1.32,1.02,0.83*01,,
$GPRMC,193617.000,A,3713.9724,N,08025.5467,W,2.73,229.53,041019,,,A*72,,,,,,,
$GPVTG,229.53,T,,M,2.73,N,5.05,K,A*34,,,,,,,,,,
$GPGGA,193618.000,3713.9723,N,08025.5474,W,1,07,1.02,629.4,M,-32.8,M,,*57,,,,,
$GPGSA,A,3,24,15,13,29,21,20,10,,,,,,1.32,1.02,0.83*01,,
$GPRMC,193618.000,A,3713.9723,N,08025.5474,W,2.24,246.16,041019,,,A*72,,,,,,,
$GPVTG,246.16,T,,M,2.24,N,4.16,K,A*3D,,,,,,,,,,
$GPGGA,193619.000,3713.9721,N,08025.5480,W,1,07,1.02,629.5,M,-32.8,M,,*5E,,,,,
$GPGSA,A,3,24,15,13,29,21,20,10,,,,,,1.32,1.02,0.83*01,,
$GPRMC,193619.000,A,3713.9721,N,08025.5480,W,2.68,236.21,041019,,,A*71,,,,,,,
$GPVTG,236.21,T,,M,2.68,N,4.97,K,A*3F,,,,,,,,,,
$GPGGA,193620.000,3713.9717,N,08025.5487,W,1,07,1.02,629.6,M,-32.8,M,,*55,,,,,
$GPGSA,A,3,24,15,13,29,21,20,10,,,,,,1.32,1.02,0.83*01,,
$GPGSV,3,1,10,21,74,271,23,15,54,045,38,20,52,312,40,24,45,136,31*70
$GPGSV,3,2,10,51,38,219,36,10,28,294,33,13,20,046,23,29,09,195,16*76
$GPGSV,3,3,10,05,04,094,37,27,,,33*45,,,,,,,,
$GPRMC,193620.000,A,3713.9717,N,08025.5487,W,2.03,271.54,041019,,,A*75,,,,,,,
$GPVTG,271.54,T,,M,2.03,N,3.76,K,A*3B,,,,,,,,,,
$GPGGA,193621.000,3713.9714,N,08025.5494,W,1,07,1.02,629.6,M,-32.8,M,,*55,,,,,
$GPGSA,A,3,24,15,13,29,21,20,10,,,,,,1.32,1.02,0.83*01,,
$GPRMC,193621.000,A,3713.9714,N,08025.5494,W,2.35,245.49,041019,,,A*7B,,,,,,,
$GPVTG,245.49,T,,M,2.35,N,4.35,K,A*35,,,,,,,,,,
$GPGGA,193622.000,3713.9712,N,08025.5502,W,1,07,1.02,629.7,M,-32.8,M,,*5F,,,,,
$GPGSA,A,3,24,15,13,29,21,20,10,,,,,,1.32,1.02,0.83*01,,
$GPRMC,193622.000,A,3713.9712,N,08025.5502,W,2.52,255.13,041019,,,A*7F,,,,,,,
$GPVTG,255.13,T,,M,2.52,N,4.67,K,A*3D,,,,,,,,,,
$GPGGA,193623.000,3713.9708,N,08025.5509,W,1,07,1.02,629.8,M,-32.8,M,,*51,,,,,
$GPGSA,A,3,24,15,13,29,21,20,10,,,,,,1.32,1.02,0.83*01,,
$GPRMC,193623.000,A,3713.9708,N,08025.5509,W,2.32,234.69,041019,,,A*72,,,,,,,
$GPVTG,234.69,T,,M,2.32,N,4.31,K,A*32,,,,,,,,,,
$GPGGA,193624.000,3713.9702,N,08025.5516,W,1,07,1.02,629.9,M,-32.8,M,,*53,,,,,
$GPGSA,A,3,24,15,13,29,21,20,10,,,,,,1.32,1.02,0.83*01,,
$GPRMC,193624.000,A,3713.9702,N,08025.5516,W,3.47,213.70,041019,,,A*7F,,,,,,,
$GPVTG,213.70,T,,M,3.47,N,6.42,K,A*3A,,,,,,,,,,
$GPGGA,193625.000,3713.9694,N,08025.5522,W,1,07,1.02,629.9,M,-32.8,M,,*5B,,,,,
$GPGSA,A,3,24,15,13,29,21,20,10,,,,,,1.32,1.02,0.83*01,,
$GPGSV,3,1,10,21,74,271,23,15,54,045,40,20,52,312,41,24,45,136,27*79
$GPGSV,3,2,10,51,38,219,38,10,28,294,29,13,20,046,22,29,09,195,15*71
$GPGSV,3,3,10,05,03,094,18,27,,,29*44,,,,,,,,
$GPRMC,193625.000,A,3713.9694,N,08025.5522,W,3.11,219.41,041019,,,A*7C,,,,,,,
$GPVTG,219.41,T,,M,3.11,N,5.77,K,A*34,,,,,,,,,,
